dba,store_number,address,address_line_2,city,state,zip_code,phone_number,store_hours,pharmacy_phone_number,24_hour,24_hour_pharmacy,clinic,compounding,drivethru,hospital,convenience,health_service,latitude,longitude,store_number,address,city,state,zip_code,phone_number,latitude,longitude
Walgreens,23,5001 MONTGOMERY BLVD NE,San Mateo & Montgomery,ALBUQUERQUE,NM,87109, (505) 881-5210,Mon: 12:00AM-12:00AM Tue: 12:00AM-12:00AM Wed: 12:00AM-12:00AM Thu: 12:00AM-12:00AM Fri: 12:00AM-12:00AM Sat: 12:00AM-12:00AM Sun: 12:00AM-12:00AM, (505) 881-5210,Yes,Yes,No,No,Yes,Yes,TRUE,TRUE,35.133583,-106.587204,23,5001 MONTGOMERY BLVD NE,ALBUQUERQUE,NM,87109, (505) 881-5210,35.133583,-106.587204
Walgreens,39,235 E PALATINE RD,Palatine & Arlington Heights Road or Palatine & Rand,ARLINGTON HEIGHTS,IL,60004, (847) 394-2420,Mon: 8:00AM-10:00PM Tue: 8:00AM-10:00PM Wed: 8:00AM-10:00PM Thu: 8:00AM-10:00PM Fri: 8:00AM-10:00PM Sat: 8:00AM-10:00PM Sun: 8:00AM-10:00PM, (847) 394-2420,Yes,No,No,No,No,Yes,TRUE,FALSE,42.107934,-87.979855,39,235 E PALATINE RD,ARLINGTON HEIGHTS,IL,60004, (847) 394-2420,42.107934,-87.979855
Walgreens,63,900 RALSTON AVE,Ralston & El Camino Real,BELMONT,CA,94002, (650) 592-7224,Mon: 8:00AM-9:00PM Tue: 8:00AM-9:00PM Wed: 8:00AM-9:00PM Thu: 8:00AM-9:00PM Fri: 8:00AM-9:00PM Sat: 9:00AM-6:00PM Sun: 10:00AM-6:00PM, (650) 592-7224,No,No,No,No,No,Yes,TRUE,FALSE,37.520472,-122.2764194,63,900 RALSTON AVE,BELMONT,CA,94002, (650) 592-7224,37.520472,-122.2764194
Walgreens,74,1634 S FEDERAL HWY,Woolbright & Federal Highway,BOYNTON BEACH,FL,33435, (561) 737-1260,Mon: 8:00AM-10:00PM Tue: 8:00AM-10:00PM Wed: 8:00AM-10:00PM Thu: 8:00AM-10:00PM Fri: 8:00AM-10:00PM Sat: 8:00AM-10:00PM Sun: 8:00AM-10:00PM, (561) 737-1260,Yes,No,No,No,Yes,No,TRUE,TRUE,26.513323,-80.0587085,74,1634 S FEDERAL HWY,BOYNTON BEACH,FL,33435, (561) 737-1260,26.513323,-80.0587085
Walgreens,89,8715 S HARLEM AVE,87th & Harlem Avenue,BRIDGEVIEW,IL,60455, (708) 598-2511,Mon: 8:00AM-10:00PM Tue: 8:00AM-10:00PM Wed: 8:00AM-10:00PM Thu: 8:00AM-10:00PM Fri: 8:00AM-10:00PM Sat: 9:00AM-5:00PM Sun: 9:00AM-5:00PM, (708) 598-2511,No,No,No,No,Yes,Yes,TRUE,TRUE,41.732796,-87.797611,89,8715 S HARLEM AVE,BRIDGEVIEW,IL,60455, (708) 598-2511,41.732796,-87.797611
Walgreens,101,3382 CASTRO VALLEY BLVD,CASTRO VALLEY BOULEVARD & REDWOOD,CASTRO VALLEY,CA,94546, (510) 537-0072,Mon: 8:00AM-9:00PM Tue: 8:00AM-9:00PM Wed: 8:00AM-9:00PM Thu: 8:00AM-9:00PM Fri: 8:00AM-9:00PM Sat: 9:00AM-6:00PM Sun: 10:00AM-6:00PM, (510) 537-0072,No,No,No,Yes,Yes,Yes,TRUE,TRUE,37.695699,-122.075499,101,3382 CASTRO VALLEY BLVD,CASTRO VALLEY,CA,94546, (510) 537-0072,37.695699,-122.075499
Walgreens,111,676 STATE ST,STATE STREET & LAKE STREET,MADISON,WI,53703, (608) 257-2556,Mon: - Tue: - Wed: - Thu: - Fri: - Sat: - Sun: -, (608) 257-2556,No,No,No,No,No,No,TRUE,FALSE,43.075027,-89.397136,111,676 STATE ST,MADISON,WI,53703, (608) 257-2556,43.075027,-89.397136
Walgreens,118,5650 W BELMONT AVE,BELMONT & CENTRAL,CHICAGO,IL,60634, (773) 777-4611,Mon: 9:00AM-9:00PM Tue: 9:00AM-9:00PM Wed: 9:00AM-9:00PM Thu: 9:00AM-9:00PM Fri: 9:00AM-9:00PM Sat: 9:00AM-5:00PM Sun: 9:00AM-5:00PM, (773) 777-4611,No,No,No,No,No,Yes,TRUE,FALSE,41.938772,-87.768635,118,5650 W BELMONT AVE,CHICAGO,IL,60634, (773) 777-4611,41.938772,-87.768635
Walgreens,143,7101 VETERANS MEMORIAL BLVD,Veterans & Power Boulevard,METAIRIE,LA,70003, (504) 455-2431,Mon: 8:00AM-10:00PM Tue: 8:00AM-10:00PM Wed: 8:00AM-10:00PM Thu: 8:00AM-10:00PM Fri: 8:00AM-10:00PM Sat: 9:00AM-6:00PM Sun: 10:00AM-6:00PM, (504) 455-2431,No,No,No,No,No,Yes,TRUE,FALSE,30.005504,-90.219395,143,7101 VETERANS MEMORIAL BLVD,METAIRIE,LA,70003, (504) 455-2431,30.005504,-90.219395
Walgreens,147,3611 E 106TH ST,106TH & EWING,CHICAGO,IL,60617, (773) 978-1988,Mon: 8:00AM-10:00PM Tue: 8:00AM-10:00PM Wed: 8:00AM-10:00PM Thu: 8:00AM-10:00PM Fri: 8:00AM-10:00PM Sat: 9:00AM-5:00PM Sun: 10:00AM-6:00PM, (773) 978-1988,No,No,No,No,No,Yes,TRUE,FALSE,41.702606,-87.536131,147,3611 E 106TH ST,CHICAGO,IL,60617, (773) 978-1988,41.702606,-87.536131
Walgreens,162,1554 E 55TH ST,55th & Lake Park,CHICAGO,IL,60615, (773) 667-1177,Mon: 12:00AM-12:00AM Tue: 12:00AM-12:00AM Wed: 12:00AM-12:00AM Thu: 12:00AM-12:00AM Fri: 12:00AM-12:00AM Sat: 12:00AM-12:00AM Sun: 12:00AM-12:00AM, (773) 667-1177,Yes,Yes,No,No,No,Yes,TRUE,TRUE,41.795547,-87.588034,162,1554 E 55TH ST,CHICAGO,IL,60615, (773) 667-1177,41.795547,-87.588034
Walgreens,163,4000 W 59TH ST,59th & Pulaski,CHICAGO,IL,60629, (773) 581-2345,Mon: 8:00AM-10:00PM Tue: 8:00AM-10:00PM Wed: 8:00AM-10:00PM Thu: 8:00AM-10:00PM Fri: 8:00AM-10:00PM Sat: 9:00AM-5:00PM Sun: 9:00AM-5:00PM, (773) 581-2345,No,No,No,No,No,Yes,TRUE,FALSE,41.786099,-87.723199,163,4000 W 59TH ST,CHICAGO,IL,60629, (773) 581-2345,41.786099,-87.723199
Walgreens,178,740 W DIVERSEY PKWY,Diversey & Halsted,CHICAGO,IL,60614, (773) 929-1097,Mon: 9:00AM-9:00PM Tue: 9:00AM-9:00PM Wed: 9:00AM-9:00PM Thu: 9:00AM-9:00PM Fri: 9:00AM-9:00PM Sat: 9:00AM-5:00PM Sun: 9:00AM-5:00PM, (773) 929-1097,No,No,No,No,No,Yes,TRUE,FALSE,41.932899,-87.648099,178,740 W DIVERSEY PKWY,CHICAGO,IL,60614, (773) 929-1097,41.932899,-87.648099
Walgreens,194,4801 N LINCOLN AVE,Lincoln & Western or Lawrence & Western,CHICAGO,IL,60625, (773) 561-2526,Mon: 8:00AM-10:00PM Tue: 8:00AM-10:00PM Wed: 8:00AM-10:00PM Thu: 8:00AM-10:00PM Fri: 8:00AM-10:00PM Sat: 8:00AM-10:00PM Sun: 9:00AM-5:00PM, (773) 561-2526,No,No,No,Yes,No,Yes,TRUE,TRUE,41.968812,-87.68843895,194,4801 N LINCOLN AVE,CHICAGO,IL,60625, (773) 561-2526,41.968812,-87.68843895
Walgreens,209,1028 S ELMHURST RD,Golf & Elmhurst,MT PROSPECT,IL,60056, (847) 437-1858,Mon: 12:00AM-12:00AM Tue: 12:00AM-12:00AM Wed: 12:00AM-12:00AM Thu: 12:00AM-12:00AM Fri: 12:00AM-12:00AM Sat: 12:00AM-12:00AM Sun: 12:00AM-12:00AM, (847) 437-1858,Yes,Yes,No,Yes,No,Yes,TRUE,TRUE,42.046208,-87.94231653,209,1028 S ELMHURST RD,MT PROSPECT,IL,60056, (847) 437-1858,42.046208,-87.94231653
Walgreens,211,757 N MICHIGAN AVE,Chicago & Michigan,CHICAGO,IL,60611, (312) 664-8686,Mon: 12:00AM-12:00AM Tue: 12:00AM-12:00AM Wed: 12:00AM-12:00AM Thu: 12:00AM-12:00AM Fri: 12:00AM-12:00AM Sat: 12:00AM-12:00AM Sun: 12:00AM-12:00AM, (312) 664-8686,Yes,Yes,No,Yes,No,Yes,TRUE,TRUE,41.896657,-87.624069,211,757 N MICHIGAN AVE,CHICAGO,IL,60611, (312) 664-8686,41.896657,-87.624069
Walgreens,215,3045 W 26TH ST,26th & Albany,CHICAGO,IL,60623, (773) 254-3316,Mon: 8:00AM-10:00PM Tue: 8:00AM-10:00PM Wed: 8:00AM-10:00PM Thu: 8:00AM-10:00PM Fri: 8:00AM-10:00PM Sat: 9:00AM-6:00PM Sun: 10:00AM-6:00PM, (773) 254-3316,No,No,No,No,No,Yes,TRUE,FALSE,41.844157,-87.70191,215,3045 W 26TH ST,CHICAGO,IL,60623, (773) 254-3316,41.844157,-87.70191
Walgreens,226,4005 W 26TH ST,26th & Pulaski,CHICAGO,IL,60623, (773) 521-9504,Mon: 8:00AM-10:00PM Tue: 8:00AM-10:00PM Wed: 8:00AM-10:00PM Thu: 8:00AM-10:00PM Fri: 8:00AM-10:00PM Sat: 9:00AM-6:00PM Sun: 9:00AM-5:00PM, (773) 521-9504,No,No,No,No,No,Yes,TRUE,FALSE,41.844099,-87.724799,226,4005 W 26TH ST,CHICAGO,IL,60623, (773) 521-9504,41.844099,-87.724799
Walgreens,230,5518 W CHICAGO AVE,Chicago & Central,CHICAGO,IL,60651, (773) 261-6664,Mon: 9:00AM-9:00PM Tue: 9:00AM-9:00PM Wed: 9:00AM-9:00PM Thu: 9:00AM-9:00PM Fri: 9:00AM-9:00PM Sat: 9:00AM-5:00PM Sun: 10:00AM-6:00PM, (773) 261-6664,No,No,No,No,No,Yes,TRUE,FALSE,41.895119,-87.764584,230,5518 W CHICAGO AVE,CHICAGO,IL,60651, (773) 261-6664,41.895119,-87.764584
Walgreens,232,3405 S KING DR,35th Street & King Drive,CHICAGO,IL,60616, (312) 326-4058,Mon: 12:00AM-12:00AM Tue: 12:00AM-12:00AM Wed: 12:00AM-12:00AM Thu: 12:00AM-12:00AM Fri: 12:00AM-12:00AM Sat: 12:00AM-12:00AM Sun: 12:00AM-12:00AM, (312) 326-4058,Yes,Yes,No,Yes,No,Yes,TRUE,TRUE,41.831964,-87.6164123,232,3405 S KING DR,CHICAGO,IL,60616, (312) 326-4058,41.831964,-87.6164123
Walgreens,249,1601 N WELLS ST,Wells & North Avenue,CHICAGO,IL,60614, (312) 642-4008,Mon: 8:00AM-10:00PM Tue: 8:00AM-10:00PM Wed: 8:00AM-10:00PM Thu: 8:00AM-10:00PM Fri: 8:00AM-10:00PM Sat: 8:00AM-10:00PM Sun: 8:00AM-10:00PM, (312) 642-4008,Yes,No,Yes,No,No,Yes,TRUE,TRUE,41.911404,-87.634472,249,1601 N WELLS ST,CHICAGO,IL,60614, (312) 642-4008,41.911404,-87.634472
Walgreens,252,7510 N WESTERN AVE,Howard & Western,CHICAGO,IL,60645, (773) 764-1765,Mon: 12:00AM-12:00AM Tue: 12:00AM-12:00AM Wed: 12:00AM-12:00AM Thu: 12:00AM-12:00AM Fri: 12:00AM-12:00AM Sat: 12:00AM-12:00AM Sun: 12:00AM-12:00AM, (773) 764-1765,Yes,Yes,Yes,No,No,Yes,TRUE,TRUE,42.017999,-87.690699,252,7510 N WESTERN AVE,CHICAGO,IL,60645, (773) 764-1765,42.017999,-87.690699
Walgreens,258,1650 W CHICAGO AVE,Chicago & Ashland,CHICAGO,IL,60622, (312) 829-6186,Mon: 9:00AM-9:00PM Tue: 9:00AM-9:00PM Wed: 9:00AM-9:00PM Thu: 9:00AM-9:00PM Fri: 9:00AM-9:00PM Sat: 9:00AM-5:00PM Sun: 9:00AM-5:00PM, (312) 829-6186,No,No,No,No,No,Yes,TRUE,FALSE,41.89627,-87.66921829,258,1650 W CHICAGO AVE,CHICAGO,IL,60622, (312) 829-6186,41.89627,-87.66921829
Walgreens,259,3358 N WESTERN AVE,Western & Roscoe,CHICAGO,IL,60618, (773) 327-2111,Mon: 9:00AM-9:00PM Tue: 9:00AM-9:00PM Wed: 9:00AM-9:00PM Thu: 9:00AM-9:00PM Fri: 9:00AM-9:00PM Sat: 9:00AM-5:00PM Sun: 9:00AM-5:00PM, (773) 327-2111,No,No,No,No,Yes,Yes,TRUE,TRUE,41.94284,-87.689689,259,3358 N WESTERN AVE,CHICAGO,IL,60618, (773) 327-2111,41.94284,-87.689689
Walgreens,263,534 S HUNT CLUB BLVD,Hunt Club Boulevard & State Road 436,APOPKA,FL,32703, (407) 869-5220,Mon: 9:00AM-9:00PM Tue: 9:00AM-9:00PM Wed: 9:00AM-9:00PM Thu: 9:00AM-9:00PM Fri: 9:00AM-9:00PM Sat: 9:00AM-5:00PM Sun: 9:00AM-5:00PM, (407) 869-5220,No,No,No,No,No,No,TRUE,FALSE,28.671264,-81.45107764,263,534 S HUNT CLUB BLVD,APOPKA,FL,32703, (407) 869-5220,28.671264,-81.45107764
Walgreens,272,1 W CORRY ST,CORRY & SHORT VINE,CINCINNATI,OH,45219, (513) 751-3444,Mon: 12:00AM-12:00AM Tue: 12:00AM-12:00AM Wed: 12:00AM-12:00AM Thu: 12:00AM-12:00AM Fri: 12:00AM-12:00AM Sat: 12:00AM-12:00AM Sun: 12:00AM-12:00AM, (513) 751-3444,Yes,Yes,No,No,No,Yes,TRUE,FALSE,39.128699,-84.509699,272,1 W CORRY ST,CINCINNATI,OH,45219, (513) 751-3444,39.128699,-84.509699
Walgreens,274,3822 PAXTON AVE,Wasson & Paxton,CINCINNATI,OH,45209, (513) 871-4615,Mon: 8:00AM-10:00PM Tue: 8:00AM-10:00PM Wed: 8:00AM-10:00PM Thu: 8:00AM-10:00PM Fri: 8:00AM-10:00PM Sat: 9:00AM-6:00PM Sun: 10:00AM-6:00PM, (513) 871-4615,Yes,No,No,No,No,Yes,TRUE,TRUE,39.146203,-84.42769153,274,3822 PAXTON AVE,CINCINNATI,OH,45209, (513) 871-4615,39.146203,-84.42769153
Walgreens,295,4808 N HOPKINS ST,Hopkins & Hampton,MILWAUKEE,WI,53209, (414) 462-4310,Mon: 8:00AM-9:00PM Tue: 8:00AM-9:00PM Wed: 8:00AM-9:00PM Thu: 8:00AM-9:00PM Fri: 8:00AM-9:00PM Sat: 9:00AM-6:00PM Sun: 10:00AM-6:00PM, (414) 462-4310,No,No,No,No,Yes,Yes,TRUE,TRUE,43.104899,-87.959799,295,4808 N HOPKINS ST,MILWAUKEE,WI,53209, (414) 462-4310,43.104899,-87.959799
Walgreens,318,7221 LEMONT RD,75th & Lemont Road,DOWNERS GROVE,IL,60516, (630) 960-4560,Mon: 9:00AM-9:00PM Tue: 9:00AM-9:00PM Wed: 9:00AM-9:00PM Thu: 9:00AM-9:00PM Fri: 9:00AM-9:00PM Sat: 9:00AM-5:00PM Sun: 9:00AM-5:00PM, (630) 960-4560,No,No,No,No,No,Yes,TRUE,FALSE,41.75558,-88.00985622,318,7221 LEMONT RD,DOWNERS GROVE,IL,60516, (630) 960-4560,41.75558,-88.00985622
Walgreens,324,216 WESTLAKE CTR,Mayfair & John Daly Boulevard,DALY CITY,CA,94015, (650) 756-4535,Mon: 12:00AM-12:00AM Tue: 12:00AM-12:00AM Wed: 12:00AM-12:00AM Thu: 12:00AM-12:00AM Fri: 12:00AM-12:00AM Sat: 12:00AM-12:00AM Sun: 12:00AM-12:00AM, (650) 756-4535,Yes,Yes,No,Yes,No,Yes,TRUE,TRUE,37.700772,-122.4840225,324,216 WESTLAKE CTR,DALY CITY,CA,94015, (650) 756-4535,37.700772,-122.4840225
Walgreens,356,801 16TH ST,16th & Stout,DENVER,CO,80202, (303) 571-5314,Mon: 7:00AM-8:00PM Tue: 7:00AM-8:00PM Wed: 7:00AM-8:00PM Thu: 7:00AM-8:00PM Fri: 7:00AM-8:00PM Sat: 9:00AM-6:00PM Sun: 10:00AM-6:00PM, (303) 571-5314,No,No,No,No,No,No,TRUE,FALSE,39.746105,-104.9930589,356,801 16TH ST,DENVER,CO,80202, (303) 571-5314,39.746105,-104.9930589
Walgreens,359,2545 E EUCLID AVE,Euclid & 26th,DES MOINES,IA,50317, (515) 266-3174,Mon: 12:00AM-12:00AM Tue: 12:00AM-12:00AM Wed: 12:00AM-12:00AM Thu: 12:00AM-12:00AM Fri: 12:00AM-12:00AM Sat: 12:00AM-12:00AM Sun: 12:00AM-12:00AM, (515) 266-3174,Yes,Yes,No,No,Yes,No,TRUE,TRUE,41.626999,-93.568999,359,2545 E EUCLID AVE,DES MOINES,IA,50317, (515) 266-3174,41.626999,-93.568999
Walgreens,400,1600 N HARLEM AVE,Harlem & North Avenue,ELMWOOD PARK,IL,60707, (708) 456-8810,Mon: 8:00AM-10:00PM Tue: 8:00AM-10:00PM Wed: 8:00AM-10:00PM Thu: 8:00AM-10:00PM Fri: 8:00AM-10:00PM Sat: 8:00AM-10:00PM Sun: 8:00AM-10:00PM, (708) 456-8810,Yes,No,No,No,No,Yes,TRUE,FALSE,41.909181,-87.806196,400,1600 N HARLEM AVE,ELMWOOD PARK,IL,60707, (708) 456-8810,41.909181,-87.806196
Walgreens,430,5695 DULUTH ST,HIGHWAY 100 & DULUTH STREET,GOLDEN VALLEY,MN,55422, (763) 546-5336,Mon: 8:00AM-10:00PM Tue: 8:00AM-10:00PM Wed: 8:00AM-10:00PM Thu: 8:00AM-10:00PM Fri: 8:00AM-10:00PM Sat: 9:00AM-6:00PM Sun: 10:00AM-6:00PM, (763) 546-5336,No,No,No,No,No,Yes,TRUE,FALSE,44.99795,-93.352054,430,5695 DULUTH ST,GOLDEN VALLEY,MN,55422, (763) 546-5336,44.99795,-93.352054
Walgreens,456,1723 E YOUNG CIR,Young Circle & Hollywood Boulevard,HOLLYWOOD,FL,33020, (954) 922-1553,Mon: 9:00AM-9:00PM Tue: 9:00AM-9:00PM Wed: 9:00AM-9:00PM Thu: 9:00AM-9:00PM Fri: 9:00AM-9:00PM Sat: 9:00AM-6:00PM Sun: 9:00AM-5:00PM, (954) 922-1553,Yes,No,No,No,No,Yes,TRUE,FALSE,26.011563,-80.14136,456,1723 E YOUNG CIR,HOLLYWOOD,FL,33020, (954) 922-1553,26.011563,-80.14136
Walgreens,489,5560 WESLAYAN ST,Bissonnet & Weslayan Street,HOUSTON,TX,77005, (713) 667-9349,Mon: 9:00AM-9:00PM Tue: 9:00AM-9:00PM Wed: 9:00AM-9:00PM Thu: 9:00AM-9:00PM Fri: 9:00AM-9:00PM Sat: 10:00AM-6:00PM Sun: 10:00AM-6:00PM, (713) 667-9349,No,No,No,No,No,Yes,TRUE,FALSE,29.722216,-95.4427203,489,5560 WESLAYAN ST,HOUSTON,TX,77005, (713) 667-9349,29.722216,-95.4427203
Walgreens,496,19639 HIGHWAY 59 N,FM 1960 & Eastex Freeway,HUMBLE,TX,77338, (281) 446-1006,Mon: 9:00AM-9:00PM Tue: 9:00AM-9:00PM Wed: 9:00AM-9:00PM Thu: 9:00AM-9:00PM Fri: 9:00AM-9:00PM Sat: 10:00AM-6:00PM Sun: 10:00AM-6:00PM, (281) 446-1006,No,No,No,No,No,No,TRUE,FALSE,30.00341,-95.272353,496,19639 HIGHWAY 59 N,HUMBLE,TX,77338, (281) 446-1006,30.00341,-95.272353
Walgreens,515,2600 S 48TH ST,48th & Van Dorn,LINCOLN,NE,68506, (402) 483-2834,Mon: 8:00AM-10:00PM Tue: 8:00AM-10:00PM Wed: 8:00AM-10:00PM Thu: 8:00AM-10:00PM Fri: 8:00AM-10:00PM Sat: 9:00AM-6:00PM Sun: 10:00AM-6:00PM, (402) 483-2834,No,No,No,No,No,No,TRUE,FALSE,40.78554,-96.652608,515,2600 S 48TH ST,LINCOLN,NE,68506, (402) 483-2834,40.78554,-96.652608
Walgreens,528,296 E DEERPATH,Deerpath & Western,LAKE FOREST,IL,60045, (847) 234-2413,Mon: 8:00AM-10:00PM Tue: 8:00AM-10:00PM Wed: 8:00AM-10:00PM Thu: 8:00AM-10:00PM Fri: 8:00AM-10:00PM Sat: 9:00AM-6:00PM Sun: 9:00AM-5:00PM, (847) 234-2413,No,No,No,No,No,Yes,TRUE,FALSE,42.251799,-87.840399,528,296 E DEERPATH,LAKE FOREST,IL,60045, (847) 234-2413,42.251799,-87.840399
Walgreens,541,1301 O ST,13th & O Street,LINCOLN,NE,68508, (402) 476-6898,Mon: 9:00AM-5:30PM Tue: 9:00AM-5:30PM Wed: 9:00AM-5:30PM Thu: 9:00AM-5:30PM Fri: 9:00AM-5:30PM Sat: 9:00AM-2:00PM Sun: CLOSED-CLOSED, (402) 476-6898,No,No,No,No,No,No,TRUE,FALSE,40.813499,-96.701899,541,1301 O ST,LINCOLN,NE,68508, (402) 476-6898,40.813499,-96.701899
Walgreens,553,5300 N BRAESWOOD BLVD,Braeswood & Chimney Rock,HOUSTON,TX,77096, (713) 721-1516,Mon: 12:00AM-12:00AM Tue: 12:00AM-12:00AM Wed: 12:00AM-12:00AM Thu: 12:00AM-12:00AM Fri: 12:00AM-12:00AM Sat: 12:00AM-12:00AM Sun: 12:00AM-12:00AM, (713) 721-1516,Yes,Yes,No,No,Yes,Yes,TRUE,TRUE,29.679296,-95.477828,553,5300 N BRAESWOOD BLVD,HOUSTON,TX,77096, (713) 721-1516,29.679296,-95.477828
Walgreens,586,2 N MAIN ST,Main & Madison,MEMPHIS,TN,38103, (901) 525-0036,Mon: 8:00AM-6:00PM Tue: 8:00AM-6:00PM Wed: 8:00AM-6:00PM Thu: 8:00AM-6:00PM Fri: 8:00AM-6:00PM Sat: 9:00AM-5:00PM Sun: CLOSED-CLOSED, (901) 525-0036,No,No,No,No,No,Yes,TRUE,FALSE,35.145099,-90.052199,586,2 N MAIN ST,MEMPHIS,TN,38103, (901) 525-0036,35.145099,-90.052199
Walgreens,621,5731 BIRD RD,Red & Bird Road,MIAMI,FL,33155, (305) 666-0757,Mon: 12:00AM-12:00AM Tue: 12:00AM-12:00AM Wed: 12:00AM-12:00AM Thu: 12:00AM-12:00AM Fri: 12:00AM-12:00AM Sat: 12:00AM-12:00AM Sun: 12:00AM-12:00AM, (305) 666-0757,Yes,Yes,No,No,No,Yes,TRUE,FALSE,25.734725,-80.28703487,621,5731 BIRD RD,MIAMI,FL,33155, (305) 666-0757,25.734725,-80.28703487
Walgreens,622,3715 NW 7TH ST,DOUGLAS ROAD & 7TH STREET,MIAMI,FL,33126, (305) 649-6301,Mon: 8:00AM-10:00PM Tue: 8:00AM-10:00PM Wed: 8:00AM-10:00PM Thu: 8:00AM-10:00PM Fri: 8:00AM-10:00PM Sat: 8:00AM-6:00PM Sun: 10:00AM-6:00PM, (305) 649-6301,No,No,No,No,No,Yes,TRUE,FALSE,25.781229,-80.2578816,622,3715 NW 7TH ST,MIAMI,FL,33126, (305) 649-6301,25.781229,-80.2578816
Walgreens,623,9380 SW 56TH ST,Miller & 93rd Avenue,MIAMI,FL,33165, (305) 274-3040,Mon: 8:00AM-10:00PM Tue: 8:00AM-10:00PM Wed: 8:00AM-10:00PM Thu: 8:00AM-10:00PM Fri: 8:00AM-10:00PM Sat: 8:00AM-10:00PM Sun: 9:00AM-6:00PM, (305) 274-3040,No,No,No,No,No,Yes,TRUE,FALSE,25.715572,-80.34676,623,9380 SW 56TH ST,MIAMI,FL,33165, (305) 274-3040,25.715572,-80.34676
Walgreens,625,615 BROADWAY,Broadway & Taylor,MILLBRAE,CA,94030, (650) 697-0166,Mon: 8:00AM-9:00PM Tue: 8:00AM-9:00PM Wed: 8:00AM-9:00PM Thu: 8:00AM-9:00PM Fri: 8:00AM-9:00PM Sat: 9:00AM-6:00PM Sun: 10:00AM-6:00PM, (650) 697-0166,Yes,No,No,No,No,No,TRUE,FALSE,37.603299,-122.393799,625,615 BROADWAY,MILLBRAE,CA,94030, (650) 697-0166,37.603299,-122.393799
Walgreens,649,3701 S HOWELL AVE,Howell & Wilbur (Chase),MILWAUKEE,WI,53207, (414) 482-1470,Mon: 12:00AM-12:00AM Tue: 12:00AM-12:00AM Wed: 12:00AM-12:00AM Thu: 12:00AM-12:00AM Fri: 12:00AM-12:00AM Sat: 12:00AM-12:00AM Sun: 12:00AM-12:00AM, (414) 482-1470,Yes,Yes,No,No,No,Yes,TRUE,FALSE,42.977699,-87.909999,649,3701 S HOWELL AVE,MILWAUKEE,WI,53207, (414) 482-1470,42.977699,-87.909999
Walgreens,662,13430 SAN PEDRO AVE,San Pedro & Bitters,SAN ANTONIO,TX,78216, (210) 496-1313,Mon: 9:00AM-9:00PM Tue: 9:00AM-9:00PM Wed: 9:00AM-9:00PM Thu: 9:00AM-9:00PM Fri: 9:00AM-9:00PM Sat: 9:00AM-5:00PM Sun: 10:00AM-5:00PM, (210) 496-1313,No,No,No,No,No,Yes,TRUE,FALSE,29.564299,-98.482199,662,13430 SAN PEDRO AVE,SAN ANTONIO,TX,78216, (210) 496-1313,29.564299,-98.482199
Walgreens,665,1600 W WISCONSIN AVE,16th & Wisconsin Avenue,MILWAUKEE,WI,53233, (414) 344-1833,Mon: 9:00AM-6:00PM Tue: 9:00AM-6:00PM Wed: 9:00AM-6:00PM Thu: 9:00AM-6:00PM Fri: 9:00AM-6:00PM Sat: 10:00AM-2:00PM Sun: CLOSED-CLOSED, (414) 344-1833,No,No,No,No,No,Yes,TRUE,FALSE,43.038699,-87.933199,665,1600 W WISCONSIN AVE,MILWAUKEE,WI,53233, (414) 344-1833,43.038699,-87.933199
Walgreens,689,121 E EL CAMINO REAL,El Camino & Grant,MOUNTAIN VIEW,CA,94040, (650) 961-7555,Mon: 12:00AM-12:00AM Tue: 12:00AM-12:00AM Wed: 12:00AM-12:00AM Thu: 12:00AM-12:00AM Fri: 12:00AM-12:00AM Sat: 12:00AM-12:00AM Sun: 12:00AM-12:00AM, (650) 961-7555,Yes,Yes,No,No,No,No,TRUE,TRUE,37.379161,-122.072901,689,121 E EL CAMINO REAL,MOUNTAIN VIEW,CA,94040, (650) 961-7555,37.379161,-122.072901
Walgreens,696,226 5TH AVE N,5TH AVENUE & CHURCH STREET,NASHVILLE,TN,37219, (615) 256-4600,Mon: 7:30AM-5:30PM Tue: 7:30AM-5:30PM Wed: 7:30AM-5:30PM Thu: 7:30AM-5:30PM Fri: 7:30AM-5:30PM Sat: CLOSED-CLOSED Sun: CLOSED-CLOSED, (615) 256-4600,No,No,No,No,No,Yes,TRUE,FALSE,36.164081,-86.780749,696,226 5TH AVE N,NASHVILLE,TN,37219, (615) 256-4600,36.164081,-86.780749
Walgreens,748,12295 BISCAYNE BLVD,Biscayne & 125th Street,NORTH MIAMI,FL,33181, (305) 893-6860,Mon: 12:00AM-12:00AM Tue: 12:00AM-12:00AM Wed: 12:00AM-12:00AM Thu: 12:00AM-12:00AM Fri: 12:00AM-12:00AM Sat: 12:00AM-12:00AM Sun: 12:00AM-12:00AM, (305) 893-6860,Yes,Yes,Yes,No,No,Yes,TRUE,TRUE,25.889084,-80.162863,748,12295 BISCAYNE BLVD,NORTH MIAMI,FL,33181, (305) 893-6860,25.889084,-80.162863
Walgreens,774,205 E GRANADA BLVD,A1A & Granada,ORMOND BEACH,FL,32176, (386) 677-8849,Mon: 9:00AM-9:00PM Tue: 9:00AM-9:00PM Wed: 9:00AM-9:00PM Thu: 9:00AM-9:00PM Fri: 9:00AM-9:00PM Sat: 9:00AM-6:00PM Sun: 9:00AM-5:00PM, (386) 677-8849,No,No,No,No,No,No,TRUE,FALSE,29.292041,-81.041266,774,205 E GRANADA BLVD,ORMOND BEACH,FL,32176, (386) 677-8849,29.292041,-81.041266
Walgreens,809,8911 N 7TH ST,7th Street & Dunlap,PHOENIX,AZ,85020, (602) 944-9635,Mon: 9:00AM-9:00PM Tue: 9:00AM-9:00PM Wed: 9:00AM-9:00PM Thu: 9:00AM-9:00PM Fri: 9:00AM-9:00PM Sat: 10:00AM-6:00PM Sun: 10:00AM-6:00PM, (602) 944-9635,No,No,No,No,No,Yes,TRUE,FALSE,33.566344,-112.064139,809,8911 N 7TH ST,PHOENIX,AZ,85020, (602) 944-9635,33.566344,-112.064139
Walgreens,813,15442 N 99TH AVE,99th Avenue & Greenway,SUN CITY,AZ,85351, (623) 974-2526,Mon: 8:00AM-8:00PM Tue: 8:00AM-8:00PM Wed: 8:00AM-8:00PM Thu: 8:00AM-8:00PM Fri: 8:00AM-8:00PM Sat: 9:00AM-5:00PM Sun: 9:00AM-5:00PM, (623) 974-2526,No,No,No,No,No,Yes,TRUE,FALSE,33.622399,-112.269599,813,15442 N 99TH AVE,SUN CITY,AZ,85351, (623) 974-2526,33.622399,-112.269599
Walgreens,828,12 W 66TH ST,66TH STREET & NICOLLET AVENUE,RICHFIELD,MN,55423, (612) 861-7276,Mon: 8:00AM-10:00PM Tue: 8:00AM-10:00PM Wed: 8:00AM-10:00PM Thu: 8:00AM-10:00PM Fri: 8:00AM-10:00PM Sat: 9:00AM-6:00PM Sun: 10:00AM-6:00PM, (612) 861-7276,Yes,No,No,No,No,Yes,TRUE,FALSE,44.884129,-93.27896169,828,12 W 66TH ST,RICHFIELD,MN,55423, (612) 861-7276,44.884129,-93.27896169
Walgreens,829,8361 BELMONT AVE,Belmont & Thatcher,RIVER GROVE,IL,60171, (708) 452-8062,Mon: 8:00AM-10:00PM Tue: 8:00AM-10:00PM Wed: 8:00AM-10:00PM Thu: 8:00AM-10:00PM Fri: 8:00AM-10:00PM Sat: 9:00AM-5:00PM Sun: 9:00AM-5:00PM, (708) 452-8062,No,No,No,No,Yes,Yes,TRUE,TRUE,41.935435,-87.835419,829,8361 BELMONT AVE,RIVER GROVE,IL,60171, (708) 452-8062,41.935435,-87.835419
Walgreens,840,1334 SARATOGA AVE,Saratoga & Payne,SAN JOSE,CA,95129, (408) 249-7333,Mon: 8:00AM-9:00PM Tue: 8:00AM-9:00PM Wed: 8:00AM-9:00PM Thu: 8:00AM-9:00PM Fri: 8:00AM-9:00PM Sat: 9:00AM-6:00PM Sun: 10:00AM-6:00PM, (408) 249-7333,No,No,No,No,No,No,TRUE,FALSE,37.299999,-121.980499,840,1334 SARATOGA AVE,SAN JOSE,CA,95129, (408) 249-7333,37.299999,-121.980499
Walgreens,842,350 N CAPITOL AVE,Capitol & McKee,SAN JOSE,CA,95133, (408) 259-9200,Mon: 12:00AM-12:00AM Tue: 12:00AM-12:00AM Wed: 12:00AM-12:00AM Thu: 12:00AM-12:00AM Fri: 12:00AM-12:00AM Sat: 12:00AM-12:00AM Sun: 12:00AM-12:00AM, (408) 259-9200,Yes,Yes,No,Yes,No,No,TRUE,TRUE,37.37267,-121.8431147,842,350 N CAPITOL AVE,SAN JOSE,CA,95133, (408) 259-9200,37.37267,-121.8431147
Walgreens,854,5764 S LINDBERGH BLVD,Lindbergh & Tesson Ferry,GREEN PARK,MO,63123, (314) 842-3372,Mon: 12:00AM-12:00AM Tue: 12:00AM-12:00AM Wed: 12:00AM-12:00AM Thu: 12:00AM-12:00AM Fri: 12:00AM-12:00AM Sat: 12:00AM-12:00AM Sun: 12:00AM-12:00AM, (314) 842-3372,Yes,Yes,No,Yes,Yes,No,TRUE,TRUE,38.522299,-90.349399,854,5764 S LINDBERGH BLVD,GREEN PARK,MO,63123, (314) 842-3372,38.522299,-90.349399
Walgreens,866,425 WABASHA ST N,Wabasha & 7th Place,SAINT PAUL,MN,55102, (651) 224-6030,Mon: 7:00AM-7:00PM Tue: 7:00AM-7:00PM Wed: 7:00AM-7:00PM Thu: 7:00AM-7:00PM Fri: 7:00AM-7:00PM Sat: CLOSED-CLOSED Sun: CLOSED-CLOSED, (651) 224-6030,No,No,No,No,No,Yes,TRUE,FALSE,44.946999,-93.095799,866,425 WABASHA ST N,SAINT PAUL,MN,55102, (651) 224-6030,44.946999,-93.095799
Walgreens,887,1524 POLK ST,Polk Street & California Street,SAN FRANCISCO,CA,94109, (415) 673-4701,Mon: 9:00AM-9:00PM Tue: 9:00AM-9:00PM Wed: 9:00AM-9:00PM Thu: 9:00AM-9:00PM Fri: 9:00AM-9:00PM Sat: 9:00AM-5:00PM Sun: 10:00AM-6:00PM, (415) 673-4701,No,No,No,No,No,No,TRUE,FALSE,37.791119,-122.420659,887,1524 POLK ST,SAN FRANCISCO,CA,94109, (415) 673-4701,37.791119,-122.420659
Walgreens,890,135 POWELL ST,POWELL STREET & O'FARRELL STREET,SAN FRANCISCO,CA,94102, (415) 391-7222,Mon: 9:00AM-9:00PM Tue: 9:00AM-9:00PM Wed: 9:00AM-9:00PM Thu: 9:00AM-9:00PM Fri: 9:00AM-9:00PM Sat: 9:00AM-5:00PM Sun: 10:00AM-6:00PM, (415) 391-7222,No,No,No,No,No,No,TRUE,FALSE,37.785999,-122.406899,890,135 POWELL ST,SAN FRANCISCO,CA,94102, (415) 391-7222,37.785999,-122.406899
Walgreens,893,1344 STOCKTON ST,Stockton Street & Broadway Street,SAN FRANCISCO,CA,94133, (415) 981-6274,Mon: 8:00AM-9:00PM Tue: 8:00AM-9:00PM Wed: 8:00AM-9:00PM Thu: 8:00AM-9:00PM Fri: 8:00AM-9:00PM Sat: 9:00AM-7:00PM Sun: 10:00AM-6:00PM, (415) 981-6274,No,No,No,No,No,Yes,TRUE,FALSE,37.797964,-122.408507,893,1344 STOCKTON ST,SAN FRANCISCO,CA,94133, (415) 981-6274,37.797964,-122.408507
Walgreens,896,3601 CALIFORNIA ST,California Street & Spruce Street,SAN FRANCISCO,CA,94118, (415) 668-5202,Mon: 8:00AM-9:00PM Tue: 8:00AM-9:00PM Wed: 8:00AM-9:00PM Thu: 8:00AM-9:00PM Fri: 8:00AM-9:00PM Sat: 9:00AM-6:00PM Sun: 10:00AM-6:00PM, (415) 668-5202,No,No,No,No,No,No,TRUE,FALSE,37.786278,-122.4535363,896,3601 CALIFORNIA ST,SAN FRANCISCO,CA,94118, (415) 668-5202,37.786278,-122.4535363
Walgreens,900,2105 MORRILL AVE,Morrill & Landess,SAN JOSE,CA,95132, (408) 263-5550,Mon: 8:00AM-9:00PM Tue: 8:00AM-9:00PM Wed: 8:00AM-9:00PM Thu: 8:00AM-9:00PM Fri: 8:00AM-9:00PM Sat: 9:00AM-7:00PM Sun: 10:00AM-6:00PM, (408) 263-5550,No,No,No,No,No,No,TRUE,FALSE,37.413801,-121.8747298,900,2105 MORRILL AVE,SAN JOSE,CA,95132, (408) 263-5550,37.413801,-121.8747298
Walgreens,910,100 PIERCE ST,1st & Pierce,SIOUX CITY,IA,51101, (712) 252-4669,Mon: 12:00AM-12:00AM Tue: 12:00AM-12:00AM Wed: 12:00AM-12:00AM Thu: 12:00AM-12:00AM Fri: 12:00AM-12:00AM Sat: 12:00AM-12:00AM Sun: 12:00AM-12:00AM, (712) 252-4669,Yes,Yes,No,Yes,Yes,No,TRUE,TRUE,42.490675,-96.404275,910,100 PIERCE ST,SIOUX CITY,IA,51101, (712) 252-4669,42.490675,-96.404275
Walgreens,993,855 COLUSA AVE,COLUSA AVENUE & GRAY AVENUE,YUBA CITY,CA,95991, (530) 674-5133,Mon: 12:00AM-12:00AM Tue: 12:00AM-12:00AM Wed: 12:00AM-12:00AM Thu: 12:00AM-12:00AM Fri: 12:00AM-12:00AM Sat: 12:00AM-12:00AM Sun: 12:00AM-12:00AM, (530) 674-5133,Yes,Yes,No,Yes,Yes,Yes,TRUE,TRUE,39.142716,-121.62878,993,855 COLUSA AVE,YUBA CITY,CA,95991, (530) 674-5133,39.142716,-121.62878
Walgreens,1002,3255 VICKSBURG LN N,SWC of Vicksburg & Hwy 55,PLYMOUTH,MN,55447, (763) 253-8917,Mon: 8:00AM-10:00PM Tue: 8:00AM-10:00PM Wed: 8:00AM-10:00PM Thu: 8:00AM-10:00PM Fri: 8:00AM-10:00PM Sat: 9:00AM-6:00PM Sun: 10:00AM-6:00PM, (763) 253-8917,No,No,No,No,Yes,Yes,TRUE,TRUE,45.017565,-93.482649,1002,3255 VICKSBURG LN N,PLYMOUTH,MN,55447, (763) 253-8917,45.017565,-93.482649
Walgreens,1004,1625 TAYLOR RD,SWC of Airport & Taylor,PORT ORANGE,FL,32128, (386) 761-5578,Mon: 9:00AM-9:00PM Tue: 9:00AM-9:00PM Wed: 9:00AM-9:00PM Thu: 9:00AM-9:00PM Fri: 9:00AM-9:00PM Sat: 9:00AM-6:00PM Sun: 9:00AM-5:00PM, (386) 761-5578,No,No,No,No,Yes,No,TRUE,TRUE,29.103878,-81.03129169,1004,1625 TAYLOR RD,PORT ORANGE,FL,32128, (386) 761-5578,29.103878,-81.03129169
Walgreens,1010,7479 LAKE WORTH RD,NEC of Nassau & Lake Worth,LAKE WORTH,FL,33467, (561) 965-4798,Mon: 8:00AM-10:00PM Tue: 8:00AM-10:00PM Wed: 8:00AM-10:00PM Thu: 8:00AM-10:00PM Fri: 8:00AM-10:00PM Sat: 8:00AM-6:00PM Sun: 9:00AM-6:00PM, (561) 965-4798,No,No,No,No,Yes,No,TRUE,TRUE,26.617813,-80.164812,1010,7479 LAKE WORTH RD,LAKE WORTH,FL,33467, (561) 965-4798,26.617813,-80.164812
Walgreens,1013,5564 BROADWAY,231st Street & Broadway,BRONX,NY,10463, (718) 548-5884,Mon: 12:00AM-12:00AM Tue: 12:00AM-12:00AM Wed: 12:00AM-12:00AM Thu: 12:00AM-12:00AM Fri: 12:00AM-12:00AM Sat: 12:00AM-12:00AM Sun: 12:00AM-12:00AM, (718) 548-5884,Yes,Yes,No,Yes,No,No,TRUE,TRUE,40.878538,-73.904737,1013,5564 BROADWAY,BRONX,NY,10463, (718) 548-5884,40.878538,-73.904737
Walgreens,1015,1725 CUMBERLAND AVE,CUMBERLAND AVENUE & 18TH STREET,KNOXVILLE,TN,37916, (865) 525-2918,Mon: 9:00AM-7:00PM Tue: 9:00AM-7:00PM Wed: 9:00AM-7:00PM Thu: 9:00AM-7:00PM Fri: 9:00AM-7:00PM Sat: 9:00AM-5:00PM Sun: CLOSED-CLOSED, (865) 525-2918,No,No,No,No,No,Yes,TRUE,FALSE,35.956248,-83.93379815,1015,1725 CUMBERLAND AVE,KNOXVILLE,TN,37916, (865) 525-2918,35.956248,-83.93379815
Walgreens,1033,811 GREEN BAY RD,Lake & Green Bay,WILMETTE,IL,60091, (847) 256-0881,Mon: 8:00AM-10:00PM Tue: 8:00AM-10:00PM Wed: 8:00AM-10:00PM Thu: 8:00AM-10:00PM Fri: 8:00AM-10:00PM Sat: 8:00AM-10:00PM Sun: 8:00AM-10:00PM, (847) 256-0881,No,No,No,No,No,Yes,TRUE,FALSE,42.077799,-87.710599,1033,811 GREEN BAY RD,WILMETTE,IL,60091, (847) 256-0881,42.077799,-87.710599
Walgreens,1034,112 W STEUBEN ST,NEC OF LINSHAW AVENUE & STUEBEN STREET (S.H. 60),CRAFTON,PA,15205, (412) 928-0146,Mon: 9:00AM-9:00PM Tue: 9:00AM-9:00PM Wed: 9:00AM-9:00PM Thu: 9:00AM-9:00PM Fri: 9:00AM-9:00PM Sat: 9:00AM-6:00PM Sun: 10:00AM-6:00PM, (412) 928-0146,No,No,Yes,No,Yes,Yes,TRUE,TRUE,40.43937,-80.072486,1034,112 W STEUBEN ST,CRAFTON,PA,15205, (412) 928-0146,40.43937,-80.072486
Walgreens,1042,4497 MOBILE HWY,SWC of Mobile & Fairfield,PENSACOLA,FL,32506, (850) 453-4848,Mon: 8:00AM-10:00PM Tue: 8:00AM-10:00PM Wed: 8:00AM-10:00PM Thu: 8:00AM-10:00PM Fri: 8:00AM-10:00PM Sat: 9:00AM-6:00PM Sun: 10:00AM-6:00PM, (850) 453-4848,No,No,No,No,Yes,Yes,TRUE,TRUE,30.433816,-87.27624419,1042,4497 MOBILE HWY,PENSACOLA,FL,32506, (850) 453-4848,30.433816,-87.27624419
Walgreens,1051,4577 MAIN ST,SEC of Smith Ave & Main St,SHALLOTTE,NC,28470, (910) 755-5953,Mon: 9:00AM-9:00PM Tue: 9:00AM-9:00PM Wed: 9:00AM-9:00PM Thu: 9:00AM-9:00PM Fri: 9:00AM-9:00PM Sat: 9:00AM-6:00PM Sun: 10:00AM-6:00PM, (910) 755-5953,No,No,No,Yes,Yes,Yes,TRUE,TRUE,33.978673,-78.37625284,1051,4577 MAIN ST,SHALLOTTE,NC,28470, (910) 755-5953,33.978673,-78.37625284
Walgreens,1054,3398 MISSION ST,Mission & 30th Street,SAN FRANCISCO,CA,94110, (415) 824-6886,Mon: 9:00AM-9:00PM Tue: 9:00AM-9:00PM Wed: 9:00AM-9:00PM Thu: 9:00AM-9:00PM Fri: 9:00AM-9:00PM Sat: 9:00AM-5:00PM Sun: 10:00AM-5:30PM, (415) 824-6886,No,No,No,No,No,No,TRUE,FALSE,37.74255,-122.422142,1054,3398 MISSION ST,SAN FRANCISCO,CA,94110, (415) 824-6886,37.74255,-122.422142
Walgreens,1056,3003 FAYETTEVILLE RD,NEC of Fayetteville Rd & Roberts Ave,LUMBERTON,NC,28358, (910) 739-7072,Mon: 12:00AM-12:00AM Tue: 12:00AM-12:00AM Wed: 12:00AM-12:00AM Thu: 12:00AM-12:00AM Fri: 12:00AM-12:00AM Sat: 12:00AM-12:00AM Sun: 12:00AM-12:00AM, (910) 739-7072,Yes,Yes,No,Yes,Yes,Yes,TRUE,TRUE,34.639347,-79.00024,1056,3003 FAYETTEVILLE RD,LUMBERTON,NC,28358, (910) 739-7072,34.639347,-79.00024
Walgreens,1068,240 W RANDOLPH ST,Randolph & Franklin,CHICAGO,IL,60606, (312) 263-7499,Mon: 8:00AM-6:00PM Tue: 8:00AM-6:00PM Wed: 8:00AM-6:00PM Thu: 8:00AM-6:00PM Fri: 8:00AM-6:00PM Sat: CLOSED-CLOSED Sun: CLOSED-CLOSED, (312) 263-7499,No,No,No,No,No,Yes,TRUE,FALSE,41.884519,-87.63531554,1068,240 W RANDOLPH ST,CHICAGO,IL,60606, (312) 263-7499,41.884519,-87.63531554
Walgreens,1072,1120 N MAIN ST,SWC of Alt Hwy 17 & Berkeley Cir,SUMMERVILLE,SC,29483, (843) 821-7537,Mon: 12:00AM-12:00AM Tue: 12:00AM-12:00AM Wed: 12:00AM-12:00AM Thu: 12:00AM-12:00AM Fri: 12:00AM-12:00AM Sat: 12:00AM-12:00AM Sun: 12:00AM-12:00AM, (843) 821-7537,Yes,Yes,No,Yes,Yes,Yes,TRUE,TRUE,33.034358,-80.161124,1072,1120 N MAIN ST,SUMMERVILLE,SC,29483, (843) 821-7537,33.034358,-80.161124
Walgreens,1073,1010 OLD BARNWELL RD,SWC of Emanuel Church & Old Barnwell,WEST COLUMBIA,SC,29170, (803) 358-0612,Mon: 8:00AM-10:00PM Tue: 8:00AM-10:00PM Wed: 8:00AM-10:00PM Thu: 8:00AM-10:00PM Fri: 8:00AM-10:00PM Sat: 8:00AM-10:00PM Sun: 10:00AM-7:00PM, (803) 358-0612,No,No,No,No,Yes,Yes,TRUE,TRUE,33.944889,-81.16991191,1073,1010 OLD BARNWELL RD,WEST COLUMBIA,SC,29170, (803) 358-0612,33.944889,-81.16991191
Walgreens,1076,333 E HUNT HWY,NWC of Hunt Highway & Bella Vista,QUEEN CREEK,AZ,85143, (480) 987-6293,Mon: 8:00AM-10:00PM Tue: 8:00AM-10:00PM Wed: 8:00AM-10:00PM Thu: 8:00AM-10:00PM Fri: 8:00AM-10:00PM Sat: 9:00AM-6:00PM Sun: 10:00AM-6:00PM, (480) 987-6293,No,No,No,No,Yes,Yes,TRUE,TRUE,33.161284,-111.5640449,1076,333 E HUNT HWY,QUEEN CREEK,AZ,85143, (480) 987-6293,33.161284,-111.5640449
Walgreens,1077,3550 FRUITVILLE RD,SWC of Beneva & Fruitville,SARASOTA,FL,34237, (941) 955-4282,Mon: 9:00AM-9:00PM Tue: 9:00AM-9:00PM Wed: 9:00AM-9:00PM Thu: 9:00AM-9:00PM Fri: 9:00AM-9:00PM Sat: 9:00AM-5:00PM Sun: 9:00AM-5:00PM, (941) 955-4282,No,No,No,No,Yes,No,TRUE,TRUE,27.336901,-82.49824126,1077,3550 FRUITVILLE RD,SARASOTA,FL,34237, (941) 955-4282,27.336901,-82.49824126
Walgreens,1078,2005 W COURT ST,NWC OF 20TH & COURT,PASCO,WA,99301, (509) 545-4391,Mon: 8:00AM-10:00PM Tue: 8:00AM-10:00PM Wed: 8:00AM-10:00PM Thu: 8:00AM-10:00PM Fri: 8:00AM-10:00PM Sat: 9:00AM-6:00PM Sun: 10:00AM-6:00PM, (509) 545-4391,No,No,No,No,Yes,Yes,TRUE,TRUE,46.241266,-119.117322,1078,2005 W COURT ST,PASCO,WA,99301, (509) 545-4391,46.241266,-119.117322
Walgreens,1079,1700 E VISTA CHINO,NEC OF SUNRISE & VISTA CHINO,PALM SPRINGS,CA,92262, (760) 864-1516,Mon: 8:00AM-9:00PM Tue: 8:00AM-9:00PM Wed: 8:00AM-9:00PM Thu: 8:00AM-9:00PM Fri: 8:00AM-9:00PM Sat: 9:00AM-6:00PM Sun: 10:00AM-6:00PM, (760) 864-1516,No,No,No,No,Yes,Yes,TRUE,TRUE,33.845341,-116.5274942,1079,1700 E VISTA CHINO,PALM SPRINGS,CA,92262, (760) 864-1516,33.845341,-116.5274942
Walgreens,1080,43200 STATE HIGHWAY 74,NWC OF NEW CHICAGO & E. FLORIDA,HEMET,CA,92544, (951) 927-8570,Mon: 8:00AM-9:00PM Tue: 8:00AM-9:00PM Wed: 8:00AM-9:00PM Thu: 8:00AM-9:00PM Fri: 8:00AM-9:00PM Sat: 9:00AM-6:00PM Sun: 10:00AM-6:00PM, (951) 927-8570,No,No,No,No,Yes,Yes,TRUE,TRUE,33.748434,-116.906003,1080,43200 STATE HIGHWAY 74,HEMET,CA,92544, (951) 927-8570,33.748434,-116.906003
Walgreens,1081,1101 S SANDERSON AVE,SWC OF SANDERSON & STETSON,HEMET,CA,92545, (951) 929-0379,Mon: 8:00AM-9:00PM Tue: 8:00AM-9:00PM Wed: 8:00AM-9:00PM Thu: 8:00AM-9:00PM Fri: 8:00AM-9:00PM Sat: 9:00AM-6:00PM Sun: 10:00AM-6:00PM, (951) 929-0379,No,No,No,No,Yes,Yes,TRUE,TRUE,33.728635,-117.007406,1081,1101 S SANDERSON AVE,HEMET,CA,92545, (951) 929-0379,33.728635,-117.007406
Walgreens,1082,4816 NW BETHANY BLVD,SEC of Bethany Blvd & Laidlaw Rd,PORTLAND,OR,97229, (503) 439-9014,Mon: 8:00AM-10:00PM Tue: 8:00AM-10:00PM Wed: 8:00AM-10:00PM Thu: 8:00AM-10:00PM Fri: 8:00AM-10:00PM Sat: 9:00AM-6:00PM Sun: 10:00AM-6:00PM, (503) 439-9014,No,No,No,No,Yes,No,TRUE,TRUE,45.555215,-122.8353698,1082,4816 NW BETHANY BLVD,PORTLAND,OR,97229, (503) 439-9014,45.555215,-122.8353698
Walgreens,1083,12525 NW CORNELL RD,NEC of Saltzman & Cornell,PORTLAND,OR,97229, (503) 646-3438,Mon: 8:00AM-10:00PM Tue: 8:00AM-10:00PM Wed: 8:00AM-10:00PM Thu: 8:00AM-10:00PM Fri: 8:00AM-10:00PM Sat: 9:00AM-6:00PM Sun: 10:00AM-6:00PM, (503) 646-3438,No,No,No,No,Yes,No,TRUE,TRUE,45.525686,-122.8060436,1083,12525 NW CORNELL RD,PORTLAND,OR,97229, (503) 646-3438,45.525686,-122.8060436
Walgreens,1085,3328 NE 3RD AVE,SWC of Weir & 3Rd,CAMAS,WA,98607, (360) 835-3303,Mon: 9:00AM-9:00PM Tue: 9:00AM-9:00PM Wed: 9:00AM-9:00PM Thu: 9:00AM-9:00PM Fri: 9:00AM-9:00PM Sat: 10:00AM-6:00PM Sun: 10:00AM-6:00PM, (360) 835-3303,No,No,No,No,Yes,Yes,TRUE,TRUE,45.584355,-122.370584,1085,3328 NE 3RD AVE,CAMAS,WA,98607, (360) 835-3303,45.584355,-122.370584
Walgreens,1093,2521 MAIN ST,SWC of Main St & Fourth Plain Blvd,VANCOUVER,WA,98660, (360) 693-2524,Mon: 8:00AM-10:00PM Tue: 8:00AM-10:00PM Wed: 8:00AM-10:00PM Thu: 8:00AM-10:00PM Fri: 8:00AM-10:00PM Sat: 9:00AM-6:00PM Sun: 10:00AM-6:00PM, (360) 693-2524,No,No,No,No,No,Yes,TRUE,TRUE,45.639909,-122.671961,1093,2521 MAIN ST,VANCOUVER,WA,98660, (360) 693-2524,45.639909,-122.671961
Walgreens,1096,3646 N BROADWAY ST,Broadway & Waveland,CHICAGO,IL,60613, (773) 549-3808,Mon: 8:00AM-10:00PM Tue: 8:00AM-10:00PM Wed: 8:00AM-10:00PM Thu: 8:00AM-10:00PM Fri: 8:00AM-10:00PM Sat: 9:00AM-5:00PM Sun: 9:00AM-5:00PM, (773) 549-3808,No,No,No,No,No,Yes,TRUE,TRUE,41.948199,-87.648099,1096,3646 N BROADWAY ST,CHICAGO,IL,60613, (773) 549-3808,41.948199,-87.648099
Walgreens,1100,9159 SE 82ND AVE,SWC of 82Nd Ave & Johnson Creek Blvd,HAPPY VALLEY,OR,97086, (503) 771-1386,Mon: 8:00AM-10:00PM Tue: 8:00AM-10:00PM Wed: 8:00AM-10:00PM Thu: 8:00AM-10:00PM Fri: 8:00AM-10:00PM Sat: 9:00AM-6:00PM Sun: 10:00AM-6:00PM, (503) 771-1386,No,No,No,No,Yes,No,TRUE,TRUE,45.456569,-122.5804257,1100,9159 SE 82ND AVE,HAPPY VALLEY,OR,97086, (503) 771-1386,45.456569,-122.5804257
Walgreens,1101,1533 E 67TH ST,SWC OF STONY ISLAND & 67TH,CHICAGO,IL,60637, (773) 493-0733,Mon: 9:00AM-7:00PM Tue: 9:00AM-7:00PM Wed: 9:00AM-7:00PM Thu: 9:00AM-7:00PM Fri: 9:00AM-7:00PM Sat: 9:00AM-5:00PM Sun: 10:00AM-6:00PM, (773) 493-0733,No,No,No,No,Yes,Yes,TRUE,TRUE,41.773099,-87.587736,1101,1533 E 67TH ST,CHICAGO,IL,60637, (773) 493-0733,41.773099,-87.587736
Walgreens,1106,1456 BETHLEHEM PIKE,SEC of Bethlehem Pike & Bysher,FLOURTOWN,PA,19031, (215) 836-4243,Mon: 8:00AM-10:00PM Tue: 8:00AM-10:00PM Wed: 8:00AM-10:00PM Thu: 8:00AM-10:00PM Fri: 8:00AM-10:00PM Sat: 8:00AM-10:00PM Sun: 8:00AM-10:00PM, (215) 836-4243,No,No,No,No,Yes,No,TRUE,TRUE,40.104516,-75.212858,1106,1456 BETHLEHEM PIKE,FLOURTOWN,PA,19031, (215) 836-4243,40.104516,-75.212858
Walgreens,1107,2310 MCCAUSLAND AVE,McCausland & Manchester,SAINT LOUIS,MO,63143, (314) 647-7820,Mon: 9:00AM-9:00PM Tue: 9:00AM-9:00PM Wed: 9:00AM-9:00PM Thu: 9:00AM-9:00PM Fri: 9:00AM-9:00PM Sat: 9:00AM-6:00PM Sun: 10:00AM-6:00PM, (314) 647-7820,No,No,No,No,Yes,No,TRUE,TRUE,38.61636,-90.30840908,1107,2310 MCCAUSLAND AVE,SAINT LOUIS,MO,63143, (314) 647-7820,38.61636,-90.30840908
Walgreens,1109,5260 DIAMOND HEIGHTS BLVD,NWC OF DIAMOND HEIGHTS & GOLD MINE,SAN FRANCISCO,CA,94131, (415) 695-2808,Mon: 9:00AM-9:00PM Tue: 9:00AM-9:00PM Wed: 9:00AM-9:00PM Thu: 9:00AM-9:00PM Fri: 9:00AM-9:00PM Sat: 9:00AM-5:00PM Sun: 10:00AM-6:00PM, (415) 695-2808,No,No,No,No,No,Yes,TRUE,TRUE,37.743735,-122.43954,1109,5260 DIAMOND HEIGHTS BLVD,SAN FRANCISCO,CA,94131, (415) 695-2808,37.743735,-122.43954
Walgreens,1116,10350 ROYAL PALM BLVD,SEC of Coral Springs & Royal Palm,CORAL SPRINGS,FL,33065, (954) 341-0544,Mon: 8:00AM-10:00PM Tue: 8:00AM-10:00PM Wed: 8:00AM-10:00PM Thu: 8:00AM-10:00PM Fri: 8:00AM-10:00PM Sat: 8:00AM-6:00PM Sun: 9:00AM-6:00PM, (954) 341-0544,No,No,No,No,Yes,No,TRUE,TRUE,26.258873,-80.26328559,1116,10350 ROYAL PALM BLVD,CORAL SPRINGS,FL,33065, (954) 341-0544,26.258873,-80.26328559
Walgreens,1120,4645 MISSION ST,Mission & Ocean Avenue,SAN FRANCISCO,CA,94112, (415) 585-6900,Mon: 9:00AM-9:00PM Tue: 9:00AM-9:00PM Wed: 9:00AM-9:00PM Thu: 9:00AM-9:00PM Fri: 9:00AM-9:00PM Sat: 9:00AM-5:00PM Sun: 10:00AM-6:00PM, (415) 585-6900,No,No,No,No,No,Yes,TRUE,FALSE,37.723908,-122.435152,1120,4645 MISSION ST,SAN FRANCISCO,CA,94112, (415) 585-6900,37.723908,-122.435152
Walgreens,1124,460 N US HIGHWAY 67,Lindbergh & Washington,FLORISSANT,MO,63031, (314) 831-6448,Mon: 12:00AM-12:00AM Tue: 12:00AM-12:00AM Wed: 12:00AM-12:00AM Thu: 12:00AM-12:00AM Fri: 12:00AM-12:00AM Sat: 12:00AM-12:00AM Sun: 12:00AM-12:00AM, (314) 831-6448,Yes,Yes,No,No,Yes,No,TRUE,TRUE,38.796899,-90.337199,1124,460 N US HIGHWAY 67,FLORISSANT,MO,63031, (314) 831-6448,38.796899,-90.337199
Walgreens,1126,1979 MISSION ST,MISSION STREET & 16TH STREET,SAN FRANCISCO,CA,94103, (415) 558-8749,Mon: 9:00AM-9:00PM Tue: 9:00AM-9:00PM Wed: 9:00AM-9:00PM Thu: 9:00AM-9:00PM Fri: 9:00AM-9:00PM Sat: 9:00AM-5:00PM Sun: 10:00AM-6:00PM, (415) 558-8749,No,No,No,No,No,Yes,TRUE,TRUE,37.765511,-122.4194419,1126,1979 MISSION ST,SAN FRANCISCO,CA,94103, (415) 558-8749,37.765511,-122.4194419
Walgreens,1127,850 43RD AVE SW,NEC of 43Rd & Oslo,VERO BEACH,FL,32968, (772) 562-0761,Mon: 8:00AM-8:00PM Tue: 8:00AM-8:00PM Wed: 8:00AM-8:00PM Thu: 8:00AM-8:00PM Fri: 8:00AM-8:00PM Sat: 9:00AM-5:00PM Sun: 9:00AM-5:00PM, (772) 562-0761,No,No,No,No,Yes,No,TRUE,TRUE,27.58775,-80.43015251,1127,850 43RD AVE SW,VERO BEACH,FL,32968, (772) 562-0761,27.58775,-80.43015251
Walgreens,1131,1051 OAK ST,NWC of Randall & Oak,NORTH AURORA,IL,60542, (630) 907-9924,Mon: 9:00AM-9:00PM Tue: 9:00AM-9:00PM Wed: 9:00AM-9:00PM Thu: 9:00AM-9:00PM Fri: 9:00AM-9:00PM Sat: 9:00AM-5:00PM Sun: 9:00AM-5:00PM, (630) 907-9924,No,No,No,No,Yes,Yes,TRUE,TRUE,41.808089,-88.350521,1131,1051 OAK ST,NORTH AURORA,IL,60542, (630) 907-9924,41.808089,-88.350521
Walgreens,1139,1325 S MILITARY TRL,10th Street & Military Trail,DEERFIELD BEACH,FL,33442, (954) 428-7406,Mon: 8:00AM-10:00PM Tue: 8:00AM-10:00PM Wed: 8:00AM-10:00PM Thu: 8:00AM-10:00PM Fri: 8:00AM-10:00PM Sat: 8:00AM-6:00PM Sun: 9:00AM-6:00PM, (954) 428-7406,No,No,No,No,No,No,TRUE,FALSE,26.301827,-80.13431846,1139,1325 S MILITARY TRL,DEERFIELD BEACH,FL,33442, (954) 428-7406,26.301827,-80.13431846
Walgreens,1142,3938 OSAGE BEACH PKWY,NEC of Hwy 54 & Rt 42,OSAGE BEACH,MO,65065, (573) 348-5081,Mon: 8:00AM-10:00PM Tue: 8:00AM-10:00PM Wed: 8:00AM-10:00PM Thu: 8:00AM-10:00PM Fri: 8:00AM-10:00PM Sat: 8:00AM-6:00PM Sun: 10:00AM-6:00PM, (573) 348-5081,No,No,No,No,Yes,No,TRUE,TRUE,38.156648,-92.604842,1142,3938 OSAGE BEACH PKWY,OSAGE BEACH,MO,65065, (573) 348-5081,38.156648,-92.604842
Walgreens,1147,2317 N CLARK ST,Clark & Belden,CHICAGO,IL,60614, (773) 929-7488,Mon: 8:00AM-10:00PM Tue: 8:00AM-10:00PM Wed: 8:00AM-10:00PM Thu: 8:00AM-10:00PM Fri: 8:00AM-10:00PM Sat: 9:00AM-5:00PM Sun: 9:00AM-5:00PM, (773) 929-7488,No,No,No,No,No,Yes,TRUE,FALSE,41.924299,-87.639499,1147,2317 N CLARK ST,CHICAGO,IL,60614, (773) 929-7488,41.924299,-87.639499
Walgreens,1156,407 E GREEN ST,Green & Fourth,CHAMPAIGN,IL,61820, (217) 344-0121,Mon: - Tue: - Wed: - Thu: - Fri: - Sat: - Sun: -, (217) 344-0121,No,No,No,No,No,Yes,TRUE,FALSE,40.110399,-88.232199,1156,407 E GREEN ST,CHAMPAIGN,IL,61820, (217) 344-0121,40.110399,-88.232199
Walgreens,1157,3316 HIGHWAY 6,Highway 6 & Williams Chase,SUGAR LAND,TX,77478, (281) 980-5790,Mon: 9:00AM-9:00PM Tue: 9:00AM-9:00PM Wed: 9:00AM-9:00PM Thu: 9:00AM-9:00PM Fri: 9:00AM-9:00PM Sat: 10:00AM-6:00PM Sun: 10:00AM-6:00PM, (281) 980-5790,No,No,No,No,No,No,TRUE,FALSE,29.590898,-95.60445562,1157,3316 HIGHWAY 6,SUGAR LAND,TX,77478, (281) 980-5790,29.590898,-95.60445562
Walgreens,1158,900 1ST AVE,NWC of Hwy 51 & Hwy 47,WOODRUFF,WI,54568, (715) 358-7084,Mon: 8:00AM-8:00PM Tue: 8:00AM-8:00PM Wed: 8:00AM-8:00PM Thu: 8:00AM-8:00PM Fri: 8:00AM-8:00PM Sat: 9:00AM-6:00PM Sun: 9:00AM-5:00PM, (715) 358-7084,No,No,No,No,Yes,Yes,TRUE,TRUE,45.897299,-89.698399,1158,900 1ST AVE,WOODRUFF,WI,54568, (715) 358-7084,45.897299,-89.698399
Walgreens,1159,104 N MAIN ST,NWC of Main & Verona,VERONA,WI,53593, (608) 848-7154,Mon: 8:00AM-10:00PM Tue: 8:00AM-10:00PM Wed: 8:00AM-10:00PM Thu: 8:00AM-10:00PM Fri: 8:00AM-10:00PM Sat: 9:00AM-6:00PM Sun: 10:00AM-6:00PM, (608) 848-7154,No,No,No,No,Yes,Yes,TRUE,TRUE,42.990895,-89.533857,1159,104 N MAIN ST,VERONA,WI,53593, (608) 848-7154,42.990895,-89.533857
Walgreens,1160,621 W BROADWAY AVE,Broadway Avenue & Lyndale,MINNEAPOLIS,MN,55411, (612) 522-2383,Mon: 9:00AM-9:00PM Tue: 9:00AM-9:00PM Wed: 9:00AM-9:00PM Thu: 9:00AM-9:00PM Fri: 9:00AM-9:00PM Sat: 10:00AM-6:00PM Sun: 10:00AM-6:00PM, (612) 522-2383,No,No,No,No,No,Yes,TRUE,TRUE,44.999099,-93.286699,1160,621 W BROADWAY AVE,MINNEAPOLIS,MN,55411, (612) 522-2383,44.999099,-93.286699
Walgreens,1162,8300 NORTHERN LIGHTS DR,NEC of 84Th St & Northern Lights Dr,LINCOLN,NE,68505, (402) 464-8302,Mon: 8:00AM-10:00PM Tue: 8:00AM-10:00PM Wed: 8:00AM-10:00PM Thu: 8:00AM-10:00PM Fri: 8:00AM-10:00PM Sat: 9:00AM-6:00PM Sun: 10:00AM-6:00PM, (402) 464-8302,No,No,No,No,Yes,No,TRUE,TRUE,40.831892,-96.60673107,1162,8300 NORTHERN LIGHTS DR,LINCOLN,NE,68505, (402) 464-8302,40.831892,-96.60673107
Walgreens,1164,1203 W FOND DU LAC ST,SWC of Westgate & Fond Du Lac,RIPON,WI,54971, (920) 748-6005,Mon: 8:00AM-8:00PM Tue: 8:00AM-8:00PM Wed: 8:00AM-8:00PM Thu: 8:00AM-8:00PM Fri: 8:00AM-8:00PM Sat: 9:00AM-6:00PM Sun: 9:00AM-5:00PM, (920) 748-6005,No,No,No,No,Yes,No,TRUE,TRUE,43.854626,-88.863219,1164,1203 W FOND DU LAC ST,RIPON,WI,54971, (920) 748-6005,43.854626,-88.863219
Walgreens,1166,719 BROOKWAY BLVD,SEC of Rt 51 & Brookway Blvd,BROOKHAVEN,MS,39601, (601) 833-8509,Mon: 8:00AM-10:00PM Tue: 8:00AM-10:00PM Wed: 8:00AM-10:00PM Thu: 8:00AM-10:00PM Fri: 8:00AM-10:00PM Sat: 9:00AM-6:00PM Sun: 10:00AM-6:00PM, (601) 833-8509,Yes,No,No,No,Yes,No,TRUE,TRUE,31.579339,-90.456401,1166,719 BROOKWAY BLVD,BROOKHAVEN,MS,39601, (601) 833-8509,31.579339,-90.456401
Walgreens,1169,20675 FM 1093 RD,SEC of Fm 1093 & Mason,RICHMOND,TX,77407, (281) 239-3772,Mon: 9:00AM-9:00PM Tue: 9:00AM-9:00PM Wed: 9:00AM-9:00PM Thu: 9:00AM-9:00PM Fri: 9:00AM-9:00PM Sat: 10:00AM-6:00PM Sun: 10:00AM-6:00PM, (281) 239-3772,No,No,No,No,Yes,No,TRUE,TRUE,29.702072,-95.74182,1169,20675 FM 1093 RD,RICHMOND,TX,77407, (281) 239-3772,29.702072,-95.74182
Walgreens,1172,9851 GLADES RD,Glades & 441,BOCA RATON,FL,33434, (561) 487-2336,Mon: 8:00AM-10:00PM Tue: 8:00AM-10:00PM Wed: 8:00AM-10:00PM Thu: 8:00AM-10:00PM Fri: 8:00AM-10:00PM Sat: 8:00AM-6:00PM Sun: 9:00AM-6:00PM, (561) 487-2336,Yes,No,No,No,No,Yes,TRUE,FALSE,26.369033,-80.200919,1172,9851 GLADES RD,BOCA RATON,FL,33434, (561) 487-2336,26.369033,-80.200919
Walgreens,1173,1520 W FULLERTON AVE,Fullerton & Ashland or Fullerton & Greenview,CHICAGO,IL,60614, (773) 929-6968,Mon: 9:00AM-9:00PM Tue: 9:00AM-9:00PM Wed: 9:00AM-9:00PM Thu: 9:00AM-9:00PM Fri: 9:00AM-9:00PM Sat: 9:00AM-5:00PM Sun: 9:00AM-5:00PM, (773) 929-6968,No,No,No,No,No,Yes,TRUE,FALSE,41.925299,-87.666399,1173,1520 W FULLERTON AVE,CHICAGO,IL,60614, (773) 929-6968,41.925299,-87.666399
Walgreens,1179,1795 E CAPITOL EXPY,East Capitol & Aborn,SAN JOSE,CA,95121, (408) 238-5890,Mon: 8:00AM-9:00PM Tue: 8:00AM-9:00PM Wed: 8:00AM-9:00PM Thu: 8:00AM-9:00PM Fri: 8:00AM-9:00PM Sat: 9:00AM-6:00PM Sun: 10:00AM-6:00PM, (408) 238-5890,No,No,No,No,No,No,TRUE,FALSE,37.31013,-121.809959,1179,1795 E CAPITOL EXPY,SAN JOSE,CA,95121, (408) 238-5890,37.31013,-121.809959
Walgreens,1189,3420 E LAKE RD,East Lake Road & Tampa Road,PALM HARBOR,FL,34685, (727) 785-7451,Mon: 8:00AM-10:00PM Tue: 8:00AM-10:00PM Wed: 8:00AM-10:00PM Thu: 8:00AM-10:00PM Fri: 8:00AM-10:00PM Sat: 9:00AM-6:00PM Sun: 9:00AM-5:00PM, (727) 785-7451,No,No,No,No,No,No,TRUE,FALSE,28.060938,-82.70638769,1189,3420 E LAKE RD,PALM HARBOR,FL,34685, (727) 785-7451,28.060938,-82.70638769
Walgreens,1194,8530 FM 78,SEC of Fm 78 & Crestway,CONVERSE,TX,78109, (210) 662-7764,Mon: 8:00AM-10:00PM Tue: 8:00AM-10:00PM Wed: 8:00AM-10:00PM Thu: 8:00AM-10:00PM Fri: 8:00AM-10:00PM Sat: 9:00AM-6:00PM Sun: 10:00AM-6:00PM, (210) 662-7764,No,No,No,No,No,Yes,TRUE,FALSE,29.500012,-98.315454,1194,8530 FM 78,CONVERSE,TX,78109, (210) 662-7764,29.500012,-98.315454
Walgreens,1197,1745 E SOUTHERN AVE,SWC of Mcclintock & Southern(B),TEMPE,AZ,85282, (480) 838-3642,Mon: 12:00AM-12:00AM Tue: 12:00AM-12:00AM Wed: 12:00AM-12:00AM Thu: 12:00AM-12:00AM Fri: 12:00AM-12:00AM Sat: 12:00AM-12:00AM Sun: 12:00AM-12:00AM, (480) 838-3642,Yes,Yes,No,No,Yes,Yes,TRUE,TRUE,33.392231,-111.909655,1197,1745 E SOUTHERN AVE,TEMPE,AZ,85282, (480) 838-3642,33.392231,-111.909655
Walgreens,1199,1600 JACKSON ST,NEC of Hwy 90-A & Fm 3155 Collins,RICHMOND,TX,77469, (281) 342-5219,Mon: 8:00AM-8:00PM Tue: 8:00AM-8:00PM Wed: 8:00AM-8:00PM Thu: 8:00AM-8:00PM Fri: 8:00AM-8:00PM Sat: 10:00AM-6:00PM Sun: 10:00AM-6:00PM, (281) 342-5219,No,No,No,No,Yes,No,TRUE,TRUE,29.579014,-95.77046,1199,1600 JACKSON ST,RICHMOND,TX,77469, (281) 342-5219,29.579014,-95.77046
Walgreens,1201,800 DEVON AVE,Devon & Cumberland,PARK RIDGE,IL,60068, (847) 825-7194,Mon: 12:00AM-12:00AM Tue: 12:00AM-12:00AM Wed: 12:00AM-12:00AM Thu: 12:00AM-12:00AM Fri: 12:00AM-12:00AM Sat: 12:00AM-12:00AM Sun: 12:00AM-12:00AM, (847) 825-7194,Yes,Yes,Yes,No,Yes,Yes,TRUE,TRUE,41.997349,-87.8339767,1201,800 DEVON AVE,PARK RIDGE,IL,60068, (847) 825-7194,41.997349,-87.8339767
Walgreens,1214,1328 2ND AVE,NEC OF 2ND AVE & 70TH ST,NEW YORK,NY,10021, (212) 734-6076,Mon: 8:00AM-10:00PM Tue: 8:00AM-10:00PM Wed: 8:00AM-10:00PM Thu: 8:00AM-10:00PM Fri: 8:00AM-10:00PM Sat: 8:00AM-10:00PM Sun: 8:00AM-10:00PM, (212) 734-6076,Yes,No,No,No,No,No,TRUE,FALSE,40.76752,-73.95918709,1214,1328 2ND AVE,NEW YORK,NY,10021, (212) 734-6076,40.76752,-73.95918709
Walgreens,1221,3212 E CHINDEN BLVD,NEC OF EAGLE RD & CHINDEN BLVD,EAGLE,ID,83616, (208) 319-0538,Mon: 9:00AM-9:00PM Tue: 9:00AM-9:00PM Wed: 9:00AM-9:00PM Thu: 9:00AM-9:00PM Fri: 9:00AM-9:00PM Sat: 9:00AM-5:00PM Sun: 9:00AM-5:00PM, (208) 319-0538,No,No,No,No,Yes,No,TRUE,TRUE,43.663652,-116.353891,1221,3212 E CHINDEN BLVD,EAGLE,ID,83616, (208) 319-0538,43.663652,-116.353891
Walgreens,1222,20 E NINE MILE RD,NWC of Old Palafox & Nine Mile,PENSACOLA,FL,32534, (850) 479-2354,Mon: 8:00AM-10:00PM Tue: 8:00AM-10:00PM Wed: 8:00AM-10:00PM Thu: 8:00AM-10:00PM Fri: 8:00AM-10:00PM Sat: 9:00AM-6:00PM Sun: 10:00AM-6:00PM, (850) 479-2354,No,No,No,No,Yes,Yes,TRUE,TRUE,30.533808,-87.27458495,1222,20 E NINE MILE RD,PENSACOLA,FL,32534, (850) 479-2354,30.533808,-87.27458495
Walgreens,1230,1421 GULF SHORES PKWY,SWC of Rt 59 & Rt 180,GULF SHORES,AL,36542, (251) 968-5946,Mon: 8:00AM-10:00PM Tue: 8:00AM-10:00PM Wed: 8:00AM-10:00PM Thu: 8:00AM-10:00PM Fri: 8:00AM-10:00PM Sat: 9:00AM-6:00PM Sun: 10:00AM-6:00PM, (251) 968-5946,No,No,No,No,Yes,No,TRUE,TRUE,30.263851,-87.68921977,1230,1421 GULF SHORES PKWY,GULF SHORES,AL,36542, (251) 968-5946,30.263851,-87.68921977
Walgreens,1232,27785 SANTA MARGARITA PKWY,NWC of Marguerite & Santa Margarita,MISSION VIEJO,CA,92691, (949) 830-2075,Mon: 8:00AM-9:00PM Tue: 8:00AM-9:00PM Wed: 8:00AM-9:00PM Thu: 8:00AM-9:00PM Fri: 8:00AM-9:00PM Sat: 9:00AM-6:00PM Sun: 10:00AM-6:00PM, (949) 830-2075,No,No,No,No,No,No,TRUE,FALSE,33.653016,-117.6461029,1232,27785 SANTA MARGARITA PKWY,MISSION VIEJO,CA,92691, (949) 830-2075,33.653016,-117.6461029
Walgreens,1234,6 E BAGLEY RD,SEC of Front & Bagley,BEREA,OH,44017, (440) 891-9422,Mon: 8:00AM-10:00PM Tue: 8:00AM-10:00PM Wed: 8:00AM-10:00PM Thu: 8:00AM-10:00PM Fri: 8:00AM-10:00PM Sat: 9:00AM-6:00PM Sun: 10:00AM-6:00PM, (440) 891-9422,No,No,No,No,Yes,Yes,TRUE,TRUE,41.372216,-81.852534,1234,6 E BAGLEY RD,BEREA,OH,44017, (440) 891-9422,41.372216,-81.852534
Walgreens,1235,621 N MAGUIRE ST,SEC of Maguire St & Young Ave,WARRENSBURG,MO,64093, (660) 747-6964,Mon: 8:00AM-10:00PM Tue: 8:00AM-10:00PM Wed: 8:00AM-10:00PM Thu: 8:00AM-10:00PM Fri: 8:00AM-10:00PM Sat: 9:00AM-6:00PM Sun: 10:00AM-6:00PM, (660) 747-6964,No,No,No,No,Yes,Yes,TRUE,TRUE,38.770494,-93.734572,1235,621 N MAGUIRE ST,WARRENSBURG,MO,64093, (660) 747-6964,38.770494,-93.734572
Walgreens,1236,13000 S US HIGHWAY 71,SWC of Hwy 71 & Main,GRANDVIEW,MO,64030, (816) 765-5949,Mon: 8:00AM-10:00PM Tue: 8:00AM-10:00PM Wed: 8:00AM-10:00PM Thu: 8:00AM-10:00PM Fri: 8:00AM-10:00PM Sat: 9:00AM-6:00PM Sun: 10:00AM-6:00PM, (816) 765-5949,No,No,No,No,Yes,Yes,TRUE,TRUE,38.887869,-94.526185,1236,13000 S US HIGHWAY 71,GRANDVIEW,MO,64030, (816) 765-5949,38.887869,-94.526185
Walgreens,1241,1201 TARAVAL ST,Taraval & 22nd Avenue,SAN FRANCISCO,CA,94116, (415) 753-1305,Mon: 9:00AM-9:00PM Tue: 9:00AM-9:00PM Wed: 9:00AM-9:00PM Thu: 9:00AM-9:00PM Fri: 9:00AM-9:00PM Sat: 9:00AM-5:00PM Sun: 10:00AM-6:00PM, (415) 753-1305,No,No,No,No,No,No,TRUE,FALSE,37.742647,-122.4793236,1241,1201 TARAVAL ST,SAN FRANCISCO,CA,94116, (415) 753-1305,37.742647,-122.4793236
Walgreens,1244,6320 N OAK TRFY,NWC of Oak & 64Th,GLADSTONE,MO,64118, (816) 453-7856,Mon: 9:00AM-7:00PM Tue: 9:00AM-7:00PM Wed: 9:00AM-7:00PM Thu: 9:00AM-7:00PM Fri: 9:00AM-7:00PM Sat: 10:00AM-6:00PM Sun: CLOSED-CLOSED, (816) 453-7856,No,No,No,No,Yes,No,TRUE,TRUE,39.209617,-94.576935,1244,6320 N OAK TRFY,GLADSTONE,MO,64118, (816) 453-7856,39.209617,-94.576935
Walgreens,1246,13700 CANAL RD,SEC of Schoenherr & Canal,STERLING HEIGHTS,MI,48313, (586) 532-9761,Mon: 9:00AM-9:00PM Tue: 9:00AM-9:00PM Wed: 9:00AM-9:00PM Thu: 9:00AM-9:00PM Fri: 9:00AM-9:00PM Sat: 10:00AM-6:00PM Sun: 10:00AM-6:00PM, (586) 532-9761,No,No,No,No,Yes,No,TRUE,TRUE,42.614148,-82.99147267,1246,13700 CANAL RD,STERLING HEIGHTS,MI,48313, (586) 532-9761,42.614148,-82.99147267
Walgreens,1249,4800 W CERMAK RD,Cicero & Cermak,CICERO,IL,60804, (708) 863-7734,Mon: 12:00AM-12:00AM Tue: 12:00AM-12:00AM Wed: 12:00AM-12:00AM Thu: 12:00AM-12:00AM Fri: 12:00AM-12:00AM Sat: 12:00AM-12:00AM Sun: 12:00AM-12:00AM, (708) 863-7734,Yes,Yes,No,Yes,No,Yes,TRUE,TRUE,41.851579,-87.74462384,1249,4800 W CERMAK RD,CICERO,IL,60804, (708) 863-7734,41.851579,-87.74462384
Walgreens,1252,2018 AUGUSTA ST,SWC of Faris & Augusta,GREENVILLE,SC,29605, (864) 232-4781,Mon: 8:00AM-10:00PM Tue: 8:00AM-10:00PM Wed: 8:00AM-10:00PM Thu: 8:00AM-10:00PM Fri: 8:00AM-10:00PM Sat: 9:00AM-6:00PM Sun: 10:00AM-6:00PM, (864) 232-4781,No,No,No,No,Yes,No,TRUE,TRUE,34.824353,-82.39526685,1252,2018 AUGUSTA ST,GREENVILLE,SC,29605, (864) 232-4781,34.824353,-82.39526685
Walgreens,1253,340 N MAIN ST,SEC OF PINEY GROVE & MAIN ST,KERNERSVILLE,NC,27284, (336) 993-5689,Mon: 8:00AM-10:00PM Tue: 8:00AM-10:00PM Wed: 8:00AM-10:00PM Thu: 8:00AM-10:00PM Fri: 8:00AM-10:00PM Sat: 9:00AM-6:00PM Sun: 10:00AM-6:00PM, (336) 993-5689,No,No,No,No,Yes,No,TRUE,TRUE,36.124447,-80.07003918,1253,340 N MAIN ST,KERNERSVILLE,NC,27284, (336) 993-5689,36.124447,-80.07003918
Walgreens,1254,44100 JEFFERSON ST,SEC OF JEFFERSON & FRED WARING,INDIO,CA,92201, (760) 772-2759,Mon: 8:00AM-9:00PM Tue: 8:00AM-9:00PM Wed: 8:00AM-9:00PM Thu: 8:00AM-9:00PM Fri: 8:00AM-9:00PM Sat: 9:00AM-6:00PM Sun: 10:00AM-6:00PM, (760) 772-2759,No,No,No,No,Yes,Yes,TRUE,TRUE,33.728342,-116.2682049,1254,44100 JEFFERSON ST,INDIO,CA,92201, (760) 772-2759,33.728342,-116.2682049
Walgreens,1255,12050 BUSTLETON AVE,NEC of Bustleton & Byberry,PHILADELPHIA,PA,19116, (215) 673-0937,Mon: 9:00AM-9:00PM Tue: 9:00AM-9:00PM Wed: 9:00AM-9:00PM Thu: 9:00AM-9:00PM Fri: 9:00AM-9:00PM Sat: 9:00AM-6:00PM Sun: 10:00AM-6:00PM, (215) 673-0937,No,No,No,Yes,Yes,No,TRUE,TRUE,40.123712,-75.014943,1255,12050 BUSTLETON AVE,PHILADELPHIA,PA,19116, (215) 673-0937,40.123712,-75.014943
Walgreens,1256,1101 LOCUST ST,NWC OF 11TH & LOCUST,PHILADELPHIA,PA,19107, (215) 629-5690,Mon: 9:00AM-9:00PM Tue: 9:00AM-9:00PM Wed: 9:00AM-9:00PM Thu: 9:00AM-9:00PM Fri: 9:00AM-9:00PM Sat: 10:00AM-6:00PM Sun: 10:00AM-6:00PM, (215) 629-5690,No,No,No,No,No,Yes,TRUE,TRUE,39.947625,-75.159264,1256,1101 LOCUST ST,PHILADELPHIA,PA,19107, (215) 629-5690,39.947625,-75.159264
Walgreens,1257,103 COMMONWEALTH BLVD W,SEC OF MARKET & COMMONWEALTH,MARTINSVILLE,VA,24112, (276) 632-6457,Mon: 9:00AM-9:00PM Tue: 9:00AM-9:00PM Wed: 9:00AM-9:00PM Thu: 9:00AM-9:00PM Fri: 9:00AM-9:00PM Sat: 10:00AM-6:00PM Sun: 10:00AM-6:00PM, (276) 632-6457,No,No,No,No,Yes,No,TRUE,TRUE,36.695284,-79.875024,1257,103 COMMONWEALTH BLVD W,MARTINSVILLE,VA,24112, (276) 632-6457,36.695284,-79.875024
Walgreens,1265,3221 FORT ST,NEC of Fort & Eureka,WYANDOTTE,MI,48192, (734) 284-1733,Mon: 9:00AM-9:00PM Tue: 9:00AM-9:00PM Wed: 9:00AM-9:00PM Thu: 9:00AM-9:00PM Fri: 9:00AM-9:00PM Sat: 10:00AM-6:00PM Sun: 10:00AM-6:00PM, (734) 284-1733,No,No,No,No,Yes,Yes,TRUE,TRUE,42.200006,-83.179406,1265,3221 FORT ST,WYANDOTTE,MI,48192, (734) 284-1733,42.200006,-83.179406
Walgreens,1267,485 SAWDUST RD,Budde Road & Sawdust Road,SPRING,TX,77380, (281) 363-9583,Mon: 12:00AM-12:00AM Tue: 12:00AM-12:00AM Wed: 12:00AM-12:00AM Thu: 12:00AM-12:00AM Fri: 12:00AM-12:00AM Sat: 12:00AM-12:00AM Sun: 12:00AM-12:00AM, (281) 363-9583,Yes,Yes,No,Yes,Yes,Yes,TRUE,TRUE,30.126295,-95.448909,1267,485 SAWDUST RD,SPRING,TX,77380, (281) 363-9583,30.126295,-95.448909
Walgreens,1272,5101 W INDIAN SCHOOL RD,SWC of 51St Ave & Indian School,PHOENIX,AZ,85031, (623) 247-1014,Mon: 12:00AM-12:00AM Tue: 12:00AM-12:00AM Wed: 12:00AM-12:00AM Thu: 12:00AM-12:00AM Fri: 12:00AM-12:00AM Sat: 12:00AM-12:00AM Sun: 12:00AM-12:00AM, (623) 247-1014,Yes,Yes,No,Yes,Yes,Yes,TRUE,TRUE,33.494487,-112.169482,1272,5101 W INDIAN SCHOOL RD,PHOENIX,AZ,85031, (623) 247-1014,33.494487,-112.169482
Walgreens,1273,1391 BIG BEND RD,NWC of Old 141 & Big Bend,BALLWIN,MO,63021, (636) 861-1988,Mon: 8:00AM-10:00PM Tue: 8:00AM-10:00PM Wed: 8:00AM-10:00PM Thu: 8:00AM-10:00PM Fri: 8:00AM-10:00PM Sat: 8:00AM-6:00PM Sun: 10:00AM-6:00PM, (636) 861-1988,No,No,No,No,Yes,No,TRUE,TRUE,38.568152,-90.496564,1273,1391 BIG BEND RD,BALLWIN,MO,63021, (636) 861-1988,38.568152,-90.496564
Walgreens,1279,2950 CENTRAL AVE SE,Central & Girard,ALBUQUERQUE,NM,87106, (505) 262-1745,Mon: 8:00AM-10:00PM Tue: 8:00AM-10:00PM Wed: 8:00AM-10:00PM Thu: 8:00AM-10:00PM Fri: 8:00AM-10:00PM Sat: 9:00AM-6:00PM Sun: 10:00AM-6:00PM, (505) 262-1745,No,No,No,No,No,Yes,TRUE,FALSE,35.080221,-106.6123807,1279,2950 CENTRAL AVE SE,ALBUQUERQUE,NM,87106, (505) 262-1745,35.080221,-106.6123807
Walgreens,1281,68 W US HIGHWAY 22 AND 3,NWC of Rte 48 & Rte 22,MAINEVILLE,OH,45039, (513) 774-0302,Mon: 8:00AM-10:00PM Tue: 8:00AM-10:00PM Wed: 8:00AM-10:00PM Thu: 8:00AM-10:00PM Fri: 8:00AM-10:00PM Sat: 9:00AM-6:00PM Sun: 10:00AM-6:00PM, (513) 774-0302,No,No,No,No,Yes,No,TRUE,TRUE,39.339237,-84.22048763,1281,68 W US HIGHWAY 22 AND 3,MAINEVILLE,OH,45039, (513) 774-0302,39.339237,-84.22048763
Walgreens,1283,500 GEARY ST,Geary & Taylor Street,SAN FRANCISCO,CA,94102, (415) 673-8413,Mon: 9:00AM-7:00PM Tue: 9:00AM-7:00PM Wed: 9:00AM-7:00PM Thu: 9:00AM-7:00PM Fri: 9:00AM-7:00PM Sat: 9:00AM-5:00PM Sun: CLOSED-CLOSED, (415) 673-8413,No,No,No,No,No,No,TRUE,FALSE,37.78706,-122.411732,1283,500 GEARY ST,SAN FRANCISCO,CA,94102, (415) 673-8413,37.78706,-122.411732
Walgreens,1286,655 E SOUTH BOULDER RD,Centennial & Boulder Road,LOUISVILLE,CO,80027, (303) 666-6051,Mon: 9:00AM-9:00PM Tue: 9:00AM-9:00PM Wed: 9:00AM-9:00PM Thu: 9:00AM-9:00PM Fri: 9:00AM-9:00PM Sat: 10:00AM-6:00PM Sun: 10:00AM-6:00PM, (303) 666-6051,No,No,No,No,No,No,TRUE,FALSE,39.988023,-105.135311,1286,655 E SOUTH BOULDER RD,LOUISVILLE,CO,80027, (303) 666-6051,39.988023,-105.135311
Walgreens,1293,1210 WEDGEWOOD DR,NEC of Mcrae & Gateway,EL PASO,TX,79925, (915) 591-9496,Mon: 12:00AM-12:00AM Tue: 12:00AM-12:00AM Wed: 12:00AM-12:00AM Thu: 12:00AM-12:00AM Fri: 12:00AM-12:00AM Sat: 12:00AM-12:00AM Sun: 12:00AM-12:00AM, (915) 591-9496,Yes,Yes,No,Yes,Yes,No,TRUE,TRUE,31.76088,-106.354067,1293,1210 WEDGEWOOD DR,EL PASO,TX,79925, (915) 591-9496,31.76088,-106.354067
Walgreens,1297,670 4TH ST,NWC of 4Th St & Townsend,SAN FRANCISCO,CA,94107, (415) 856-0543,Mon: 8:00AM-9:00PM Tue: 8:00AM-9:00PM Wed: 8:00AM-9:00PM Thu: 8:00AM-9:00PM Fri: 8:00AM-9:00PM Sat: 9:00AM-5:00PM Sun: 10:00AM-6:00PM, (415) 856-0543,No,No,No,No,No,Yes,TRUE,TRUE,37.777094,-122.395039,1297,670 4TH ST,SAN FRANCISCO,CA,94107, (415) 856-0543,37.777094,-122.395039
Walgreens,1298,1372 N MILWAUKEE AVE,Milwaukee & Wood,CHICAGO,IL,60622, (773) 772-0941,Mon: 8:00AM-10:00PM Tue: 8:00AM-10:00PM Wed: 8:00AM-10:00PM Thu: 8:00AM-10:00PM Fri: 8:00AM-10:00PM Sat: 9:00AM-6:00PM Sun: 9:00AM-5:00PM, (773) 772-0941,No,No,No,No,No,Yes,TRUE,FALSE,41.907105,-87.67251758,1298,1372 N MILWAUKEE AVE,CHICAGO,IL,60622, (773) 772-0941,41.907105,-87.67251758
Walgreens,1301,327 W 4TH ST,NEC OF HWY 63 & 4TH,OTTUMWA,IA,52501, (641) 226-5077,Mon: 8:00AM-8:00PM Tue: 8:00AM-8:00PM Wed: 8:00AM-8:00PM Thu: 8:00AM-8:00PM Fri: 8:00AM-8:00PM Sat: 9:00AM-6:00PM Sun: 10:00AM-6:00PM, (641) 226-5077,No,No,No,No,Yes,No,TRUE,TRUE,41.022006,-92.41326517,1301,327 W 4TH ST,OTTUMWA,IA,52501, (641) 226-5077,41.022006,-92.41326517
Walgreens,1303,4323 CHICAGO AVE,43rd Street & Chicago Avenue,MINNEAPOLIS,MN,55407, (612) 822-9712,Mon: 8:00AM-10:00PM Tue: 8:00AM-10:00PM Wed: 8:00AM-10:00PM Thu: 8:00AM-10:00PM Fri: 8:00AM-10:00PM Sat: 9:00AM-6:00PM Sun: 10:00AM-6:00PM, (612) 822-9712,Yes,No,No,No,No,Yes,TRUE,TRUE,44.924225,-93.26228908,1303,4323 CHICAGO AVE,MINNEAPOLIS,MN,55407, (612) 822-9712,44.924225,-93.26228908
Walgreens,1304,5709 W AMARILLO BLVD,SEC of Amarillo Blvd & Gem Lake,AMARILLO,TX,79106, (806) 355-7209,Mon: 9:00AM-9:00PM Tue: 9:00AM-9:00PM Wed: 9:00AM-9:00PM Thu: 9:00AM-9:00PM Fri: 9:00AM-9:00PM Sat: 10:00AM-6:00PM Sun: 10:00AM-6:00PM, (806) 355-7209,No,No,No,No,Yes,No,TRUE,TRUE,35.212662,-101.9012916,1304,5709 W AMARILLO BLVD,AMARILLO,TX,79106, (806) 355-7209,35.212662,-101.9012916
Walgreens,1306,11605 W BELLEVIEW AVE,NWC of Simms & Belleview,LITTLETON,CO,80127, (303) 524-3745,Mon: 9:00AM-9:00PM Tue: 9:00AM-9:00PM Wed: 9:00AM-9:00PM Thu: 9:00AM-9:00PM Fri: 9:00AM-9:00PM Sat: 9:00AM-6:00PM Sun: 10:00AM-6:00PM, (303) 524-3745,No,No,No,No,Yes,No,TRUE,TRUE,39.624691,-105.1293758,1306,11605 W BELLEVIEW AVE,LITTLETON,CO,80127, (303) 524-3745,39.624691,-105.1293758
Walgreens,1308,7410 N CLARK ST,Clark & Rogers,CHICAGO,IL,60626, (773) 743-6784,Mon: 8:00AM-10:00PM Tue: 8:00AM-10:00PM Wed: 8:00AM-10:00PM Thu: 8:00AM-10:00PM Fri: 8:00AM-10:00PM Sat: 9:00AM-5:00PM Sun: 9:00AM-5:00PM, (773) 743-6784,No,No,No,No,Yes,Yes,TRUE,TRUE,42.016399,-87.675799,1308,7410 N CLARK ST,CHICAGO,IL,60626, (773) 743-6784,42.016399,-87.675799
Walgreens,1309,110 WALNUT ST,SWC of Walnut & Us 40,HIGHLAND,IL,62249, (618) 651-1204,Mon: 8:00AM-10:00PM Tue: 8:00AM-10:00PM Wed: 8:00AM-10:00PM Thu: 8:00AM-10:00PM Fri: 8:00AM-10:00PM Sat: 8:00AM-10:00PM Sun: 10:00AM-6:00PM, (618) 651-1204,No,No,No,No,Yes,Yes,TRUE,TRUE,38.747564,-89.681785,1309,110 WALNUT ST,HIGHLAND,IL,62249, (618) 651-1204,38.747564,-89.681785
Walgreens,1310,3110 W ARMITAGE AVE,Armitage & Kedzie,CHICAGO,IL,60647, (773) 235-6758,Mon: 9:00AM-9:00PM Tue: 9:00AM-9:00PM Wed: 9:00AM-9:00PM Thu: 9:00AM-9:00PM Fri: 9:00AM-9:00PM Sat: 9:00AM-5:00PM Sun: 9:00AM-5:00PM, (773) 235-6758,No,No,No,No,No,Yes,TRUE,FALSE,41.917499,-87.705599,1310,3110 W ARMITAGE AVE,CHICAGO,IL,60647, (773) 235-6758,41.917499,-87.705599
Walgreens,1317,3445 S HIGH ST,SWC of High St & Williams St,COLUMBUS,OH,43207, (614) 497-3745,Mon: 8:00AM-10:00PM Tue: 8:00AM-10:00PM Wed: 8:00AM-10:00PM Thu: 8:00AM-10:00PM Fri: 8:00AM-10:00PM Sat: 8:00AM-10:00PM Sun: 10:00AM-6:00PM, (614) 497-3745,No,No,No,No,Yes,No,TRUE,TRUE,39.891409,-82.99727454,1317,3445 S HIGH ST,COLUMBUS,OH,43207, (614) 497-3745,39.891409,-82.99727454
Walgreens,1318,698 S MCKENZIE ST,NWC of Rt 59 & Azalea Ave,FOLEY,AL,36535, (251) 971-6258,Mon: 8:00AM-10:00PM Tue: 8:00AM-10:00PM Wed: 8:00AM-10:00PM Thu: 8:00AM-10:00PM Fri: 8:00AM-10:00PM Sat: 9:00AM-6:00PM Sun: 10:00AM-6:00PM, (251) 971-6258,No,No,No,No,Yes,Yes,TRUE,TRUE,30.399862,-87.68405352,1318,698 S MCKENZIE ST,FOLEY,AL,36535, (251) 971-6258,30.399862,-87.68405352
Walgreens,1319,2130 S 17TH ST,NWC of 17Th St & Medical Ctr Dr,WILMINGTON,NC,28401, (910) 343-2988,Mon: 7:00AM-12:00AM Tue: 7:00AM-12:00AM Wed: 7:00AM-12:00AM Thu: 7:00AM-12:00AM Fri: 7:00AM-12:00AM Sat: 7:00AM-12:00AM Sun: 7:00AM-12:00AM, (910) 343-2988,Yes,No,No,Yes,Yes,Yes,TRUE,TRUE,34.204983,-77.924509,1319,2130 S 17TH ST,WILMINGTON,NC,28401, (910) 343-2988,34.204983,-77.924509
Walgreens,1327,498 CASTRO ST,Castro Street & 18th Street,SAN FRANCISCO,CA,94114, (415) 861-3136,Mon: 12:00AM-12:00AM Tue: 12:00AM-12:00AM Wed: 12:00AM-12:00AM Thu: 12:00AM-12:00AM Fri: 12:00AM-12:00AM Sat: 12:00AM-12:00AM Sun: 12:00AM-12:00AM, (415) 861-3136,Yes,Yes,No,No,No,Yes,TRUE,TRUE,37.761035,-122.435275,1327,498 CASTRO ST,SAN FRANCISCO,CA,94114, (415) 861-3136,37.761035,-122.435275
Walgreens,1332,300 N MICHIGAN AVE,Michigan & South Water,CHICAGO,IL,60601, (312) 558-9079,Mon: 8:00AM-6:00PM Tue: 8:00AM-6:00PM Wed: 8:00AM-6:00PM Thu: 8:00AM-6:00PM Fri: 8:00AM-6:00PM Sat: CLOSED-CLOSED Sun: CLOSED-CLOSED, (312) 558-9079,No,No,No,No,No,Yes,TRUE,FALSE,41.886999,-87.624699,1332,300 N MICHIGAN AVE,CHICAGO,IL,60601, (312) 558-9079,41.886999,-87.624699
Walgreens,1336,4520 W NORTH AVE,45th & North Avenue,MILWAUKEE,WI,53208, (414) 447-7178,Mon: 9:00AM-9:00PM Tue: 9:00AM-9:00PM Wed: 9:00AM-9:00PM Thu: 9:00AM-9:00PM Fri: 9:00AM-9:00PM Sat: 9:00AM-6:00PM Sun: 9:00AM-5:00PM, (414) 447-7178,No,No,No,No,No,Yes,TRUE,FALSE,43.060799,-87.970299,1336,4520 W NORTH AVE,MILWAUKEE,WI,53208, (414) 447-7178,43.060799,-87.970299
Walgreens,1337,6421 MARKET AVE N,NWC of Market Ave North & E Maple,CANTON,OH,44721, (330) 244-1435,Mon: 8:00AM-10:00PM Tue: 8:00AM-10:00PM Wed: 8:00AM-10:00PM Thu: 8:00AM-10:00PM Fri: 8:00AM-10:00PM Sat: 9:00AM-6:00PM Sun: 10:00AM-6:00PM, (330) 244-1435,No,No,No,No,Yes,No,TRUE,TRUE,40.875299,-81.364599,1337,6421 MARKET AVE N,CANTON,OH,44721, (330) 244-1435,40.875299,-81.364599
Walgreens,1339,3077 54TH AVE S,NEC of 31St Street & 54Th Ave,ST PETERSBURG,FL,33712, (727) 362-1505,Mon: 9:00AM-9:00PM Tue: 9:00AM-9:00PM Wed: 9:00AM-9:00PM Thu: 9:00AM-9:00PM Fri: 9:00AM-9:00PM Sat: 9:00AM-6:00PM Sun: 9:00AM-5:00PM, (727) 362-1505,Yes,No,No,No,Yes,No,TRUE,TRUE,27.719574,-82.67353635,1339,3077 54TH AVE S,ST PETERSBURG,FL,33712, (727) 362-1505,27.719574,-82.67353635
Walgreens,1375,1200 N DEARBORN ST,Dearborn & Division,CHICAGO,IL,60610, (312) 943-0973,Mon: 8:00AM-10:00PM Tue: 8:00AM-10:00PM Wed: 8:00AM-10:00PM Thu: 8:00AM-10:00PM Fri: 8:00AM-10:00PM Sat: 8:00AM-10:00PM Sun: 8:00AM-10:00PM, (312) 943-0973,Yes,No,No,No,No,Yes,TRUE,FALSE,41.904099,-87.630199,1375,1200 N DEARBORN ST,CHICAGO,IL,60610, (312) 943-0973,41.904099,-87.630199
Walgreens,1376,6649 MORRISON BLVD,NWC of Sharon & Morrison,CHARLOTTE,NC,28211, (704) 367-1716,Mon: 12:00AM-12:00AM Tue: 12:00AM-12:00AM Wed: 12:00AM-12:00AM Thu: 12:00AM-12:00AM Fri: 12:00AM-12:00AM Sat: 12:00AM-12:00AM Sun: 12:00AM-12:00AM, (704) 367-1716,Yes,Yes,No,Yes,Yes,Yes,TRUE,TRUE,35.153141,-80.82690514,1376,6649 MORRISON BLVD,CHARLOTTE,NC,28211, (704) 367-1716,35.153141,-80.82690514
Walgreens,1393,1630 OCEAN AVE,Ocean Avenue & Faxon,SAN FRANCISCO,CA,94112, (415) 239-0804,Mon: 9:00AM-9:00PM Tue: 9:00AM-9:00PM Wed: 9:00AM-9:00PM Thu: 9:00AM-9:00PM Fri: 9:00AM-9:00PM Sat: 9:00AM-5:00PM Sun: 10:00AM-6:00PM, (415) 239-0804,No,No,No,No,No,Yes,TRUE,FALSE,37.724903,-122.459654,1393,1630 OCEAN AVE,SAN FRANCISCO,CA,94112, (415) 239-0804,37.724903,-122.459654
Walgreens,1398,525 E MIDLOTHIAN BLVD,SWC of South Ave & Midlothian,YOUNGSTOWN,OH,44502, (330) 788-2215,Mon: 9:00AM-9:00PM Tue: 9:00AM-9:00PM Wed: 9:00AM-9:00PM Thu: 9:00AM-9:00PM Fri: 9:00AM-9:00PM Sat: 9:00AM-6:00PM Sun: 10:00AM-6:00PM, (330) 788-2215,No,No,No,No,Yes,Yes,TRUE,TRUE,41.060274,-80.645385,1398,525 E MIDLOTHIAN BLVD,YOUNGSTOWN,OH,44502, (330) 788-2215,41.060274,-80.645385
Walgreens,1403,3201 DIVISADERO ST,Divisadero & Lombard Street,SAN FRANCISCO,CA,94123, (415) 931-6417,Mon: 12:00AM-12:00AM Tue: 12:00AM-12:00AM Wed: 12:00AM-12:00AM Thu: 12:00AM-12:00AM Fri: 12:00AM-12:00AM Sat: 12:00AM-12:00AM Sun: 12:00AM-12:00AM, (415) 931-6417,Yes,Yes,No,Yes,No,Yes,TRUE,TRUE,37.799201,-122.4430003,1403,3201 DIVISADERO ST,SAN FRANCISCO,CA,94123, (415) 931-6417,37.799201,-122.4430003
Walgreens,1407,2519 N MCMULLEN BOOTH RD,McMullen Booth Road & Enterprise,CLEARWATER,FL,33761, (727) 726-8894,Mon: 8:00AM-10:00PM Tue: 8:00AM-10:00PM Wed: 8:00AM-10:00PM Thu: 8:00AM-10:00PM Fri: 8:00AM-10:00PM Sat: 9:00AM-6:00PM Sun: 9:00AM-5:00PM, (727) 726-8894,No,No,No,No,No,No,TRUE,FALSE,28.012756,-82.70766907,1407,2519 N MCMULLEN BOOTH RD,CLEARWATER,FL,33761, (727) 726-8894,28.012756,-82.70766907
Walgreens,1411,21324 ST ANDREWS BLVD,St. Andrews Boulevard & Verde Trail,BOCA RATON,FL,33433, (561) 368-5759,Mon: 8:00AM-10:00PM Tue: 8:00AM-10:00PM Wed: 8:00AM-10:00PM Thu: 8:00AM-10:00PM Fri: 8:00AM-10:00PM Sat: 8:00AM-6:00PM Sun: 9:00AM-6:00PM, (561) 368-5759,No,No,No,No,No,No,TRUE,FALSE,26.359627,-80.13695581,1411,21324 ST ANDREWS BLVD,BOCA RATON,FL,33433, (561) 368-5759,26.359627,-80.13695581
Walgreens,1412,890 N STATE ROAD 7,Johnson Street & State Road 7,HOLLYWOOD,FL,33021, (954) 962-3305,Mon: 9:00AM-9:00PM Tue: 9:00AM-9:00PM Wed: 9:00AM-9:00PM Thu: 9:00AM-9:00PM Fri: 9:00AM-9:00PM Sat: 9:00AM-6:00PM Sun: 9:00AM-5:00PM, (954) 962-3305,No,No,No,No,No,Yes,TRUE,FALSE,26.017341,-80.20852418,1412,890 N STATE ROAD 7,HOLLYWOOD,FL,33021, (954) 962-3305,26.017341,-80.20852418
Walgreens,1417,1931 W CERMAK RD,Cermak & Wolcott,CHICAGO,IL,60608, (773) 847-5781,Mon: 12:00AM-12:00AM Tue: 12:00AM-12:00AM Wed: 12:00AM-12:00AM Thu: 12:00AM-12:00AM Fri: 12:00AM-12:00AM Sat: 12:00AM-12:00AM Sun: 12:00AM-12:00AM, (773) 847-5781,Yes,Yes,No,Yes,No,Yes,TRUE,TRUE,41.852099,-87.674099,1417,1931 W CERMAK RD,CHICAGO,IL,60608, (773) 847-5781,41.852099,-87.674099
Walgreens,1423,2316 N ROCKWELL AVE,SEC of Rockwell & 23Rd,BETHANY,OK,73008, (405) 440-0342,Mon: 9:00AM-9:00PM Tue: 9:00AM-9:00PM Wed: 9:00AM-9:00PM Thu: 9:00AM-9:00PM Fri: 9:00AM-9:00PM Sat: 9:00AM-6:00PM Sun: 10:00AM-6:00PM, (405) 440-0342,No,No,No,No,Yes,No,TRUE,TRUE,35.492574,-97.635831,1423,2316 N ROCKWELL AVE,BETHANY,OK,73008, (405) 440-0342,35.492574,-97.635831
Walgreens,1427,532 NEPTUNE AVE,5th & 6th Street,BROOKLYN,NY,11224, (718) 372-1551,Mon: 8:00AM-10:00PM Tue: 8:00AM-10:00PM Wed: 8:00AM-10:00PM Thu: 8:00AM-10:00PM Fri: 8:00AM-10:00PM Sat: 9:00AM-6:00PM Sun: 8:00AM-10:00PM, (718) 372-1551,No,No,No,No,No,No,TRUE,FALSE,40.579749,-73.974255,1427,532 NEPTUNE AVE,BROOKLYN,NY,11224, (718) 372-1551,40.579749,-73.974255
Walgreens,1430,1701 SOUTH ST,17th & South Street,LINCOLN,NE,68502, (402) 435-3271,Mon: 12:00AM-12:00AM Tue: 12:00AM-12:00AM Wed: 12:00AM-12:00AM Thu: 12:00AM-12:00AM Fri: 12:00AM-12:00AM Sat: 12:00AM-12:00AM Sun: 12:00AM-12:00AM, (402) 435-3271,Yes,Yes,No,No,No,No,TRUE,FALSE,40.791465,-96.696366,1430,1701 SOUTH ST,LINCOLN,NE,68502, (402) 435-3271,40.791465,-96.696366
Walgreens,1438,2501 WAUKEGAN RD,Waukegan & Half Day,BANNOCKBURN,IL,60015, (847) 940-8104,Mon: 9:00AM-9:00PM Tue: 9:00AM-9:00PM Wed: 9:00AM-9:00PM Thu: 9:00AM-9:00PM Fri: 9:00AM-9:00PM Sat: 9:00AM-5:00PM Sun: 9:00AM-5:00PM, (847) 940-8104,No,No,No,No,Yes,Yes,TRUE,TRUE,42.198283,-87.861169,1438,2501 WAUKEGAN RD,BANNOCKBURN,IL,60015, (847) 940-8104,42.198283,-87.861169
Walgreens,1444,1130 N LEBANON ST,SWC of Lebanon & Camp,LEBANON,IN,46052, (765) 482-3240,Mon: 9:00AM-9:00PM Tue: 9:00AM-9:00PM Wed: 9:00AM-9:00PM Thu: 9:00AM-9:00PM Fri: 9:00AM-9:00PM Sat: 9:00AM-6:00PM Sun: 10:00AM-6:00PM, (765) 482-3240,No,No,No,No,Yes,No,TRUE,TRUE,40.056914,-86.471231,1444,1130 N LEBANON ST,LEBANON,IN,46052, (765) 482-3240,40.056914,-86.471231
Walgreens,1445,9124 BRODERICK BLVD,NEC of Broderick & Concord,INVER GROVE HEIGHTS,MN,55076, (651) 251-3836,Mon: 9:00AM-7:00PM Tue: 9:00AM-7:00PM Wed: 9:00AM-7:00PM Thu: 9:00AM-7:00PM Fri: 9:00AM-7:00PM Sat: 9:00AM-6:00PM Sun: 10:00AM-5:00PM, (651) 251-3836,No,No,No,No,Yes,Yes,TRUE,TRUE,44.817571,-93.04309233,1445,9124 BRODERICK BLVD,INVER GROVE HEIGHTS,MN,55076, (651) 251-3836,44.817571,-93.04309233
Walgreens,1449,8000 BROADVIEW VILLAGE SQ,NEC of 17Th & Cermak,BROADVIEW,IL,60155, (708) 410-2957,Mon: 9:00AM-9:00PM Tue: 9:00AM-9:00PM Wed: 9:00AM-9:00PM Thu: 9:00AM-9:00PM Fri: 9:00AM-9:00PM Sat: 9:00AM-6:00PM Sun: 9:00AM-5:00PM, (708) 410-2957,No,No,No,No,Yes,Yes,TRUE,TRUE,41.849299,-87.849299,1449,8000 BROADVIEW VILLAGE SQ,BROADVIEW,IL,60155, (708) 410-2957,41.849299,-87.849299
Walgreens,1450,4101 1ST AVE,SEC of 1St St & Ogden Ave,LYONS,IL,60534, (708) 447-6851,Mon: 12:00AM-12:00AM Tue: 12:00AM-12:00AM Wed: 12:00AM-12:00AM Thu: 12:00AM-12:00AM Fri: 12:00AM-12:00AM Sat: 12:00AM-12:00AM Sun: 12:00AM-12:00AM, (708) 447-6851,Yes,Yes,Yes,No,Yes,Yes,TRUE,TRUE,41.815933,-87.833658,1450,4101 1ST AVE,LYONS,IL,60534, (708) 447-6851,41.815933,-87.833658
Walgreens,1479,16750 COUNTY ROAD 30,,MAPLE GROVE,MN,55311, (763) 416-1863,Mon: 8:00AM-10:00PM Tue: 8:00AM-10:00PM Wed: 8:00AM-10:00PM Thu: 8:00AM-10:00PM Fri: 8:00AM-10:00PM Sat: 9:00AM-6:00PM Sun: 10:00AM-6:00PM, (763) 416-1863,No,No,No,No,Yes,Yes,TRUE,TRUE,45.127802,-93.49273348,1479,16750 COUNTY ROAD 30,MAPLE GROVE,MN,55311, (763) 416-1863,45.127802,-93.49273348
Walgreens,1484,3401 ORCHARD RD,SWC of Orchard Rd & Lewis,OSWEGO,IL,60543, (630) 551-0367,Mon: 9:00AM-9:00PM Tue: 9:00AM-9:00PM Wed: 9:00AM-9:00PM Thu: 9:00AM-9:00PM Fri: 9:00AM-9:00PM Sat: 9:00AM-5:00PM Sun: 9:00AM-5:00PM, (630) 551-0367,No,No,No,No,Yes,Yes,TRUE,TRUE,41.687051,-88.38104,1484,3401 ORCHARD RD,OSWEGO,IL,60543, (630) 551-0367,41.687051,-88.38104
Walgreens,1487,10425 QUEENS BLVD,QUEENS BOULEVARD & YELLOW STONE BOULEVARD,FOREST HILLS,NY,11375, (718) 896-7901,Mon: 12:00AM-12:00AM Tue: 12:00AM-12:00AM Wed: 12:00AM-12:00AM Thu: 12:00AM-12:00AM Fri: 12:00AM-12:00AM Sat: 12:00AM-12:00AM Sun: 12:00AM-12:00AM, (718) 896-7901,Yes,Yes,No,Yes,No,No,TRUE,TRUE,40.723673,-73.847996,1487,10425 QUEENS BLVD,FOREST HILLS,NY,11375, (718) 896-7901,40.723673,-73.847996
Walgreens,1495,4225 W ARMITAGE AVE,Armitage & Keeler,CHICAGO,IL,60639, (773) 235-1123,Mon: 9:00AM-9:00PM Tue: 9:00AM-9:00PM Wed: 9:00AM-9:00PM Thu: 9:00AM-9:00PM Fri: 9:00AM-9:00PM Sat: 9:00AM-5:00PM Sun: 9:00AM-5:00PM, (773) 235-1123,No,No,No,No,No,Yes,TRUE,FALSE,41.916899,-87.732299,1495,4225 W ARMITAGE AVE,CHICAGO,IL,60639, (773) 235-1123,41.916899,-87.732299
Walgreens,1496,6310 N NAGLE AVE,NAGLE & MILWAUKEE OR DEVON & MILWAUKEE,CHICAGO,IL,60646, (773) 774-2225,Mon: 8:00AM-10:00PM Tue: 8:00AM-10:00PM Wed: 8:00AM-10:00PM Thu: 8:00AM-10:00PM Fri: 8:00AM-10:00PM Sat: 8:00AM-10:00PM Sun: 8:00AM-10:00PM, (773) 774-2225,Yes,No,No,No,No,Yes,TRUE,FALSE,41.99598,-87.788034,1496,6310 N NAGLE AVE,CHICAGO,IL,60646, (773) 774-2225,41.99598,-87.788034
Walgreens,1497,2455 EASTERN AVE,SWC of Pleasant & Eastern,PLYMOUTH,WI,53073, (920) 893-5895,Mon: 8:00AM-9:00PM Tue: 8:00AM-9:00PM Wed: 8:00AM-9:00PM Thu: 8:00AM-9:00PM Fri: 8:00AM-9:00PM Sat: 9:00AM-6:00PM Sun: 9:00AM-5:00PM, (920) 893-5895,No,No,No,No,Yes,No,TRUE,TRUE,43.746168,-87.951532,1497,2455 EASTERN AVE,PLYMOUTH,WI,53073, (920) 893-5895,43.746168,-87.951532
Walgreens,1502,6204 MONTGOMERY RD,WOODMONT & MONTGOMERY,CINCINNATI,OH,45213, (513) 731-2272,Mon: 8:00AM-9:00PM Tue: 8:00AM-9:00PM Wed: 8:00AM-9:00PM Thu: 8:00AM-9:00PM Fri: 8:00AM-9:00PM Sat: 9:00AM-6:00PM Sun: 10:00AM-6:00PM, (513) 731-2272,No,No,No,No,No,Yes,TRUE,FALSE,39.182899,-84.424699,1502,6204 MONTGOMERY RD,CINCINNATI,OH,45213, (513) 731-2272,39.182899,-84.424699
Walgreens,1503,1926 W 35TH ST,35TH & DAMON,CHICAGO,IL,60609, (773) 254-5523,Mon: 9:00AM-9:00PM Tue: 9:00AM-9:00PM Wed: 9:00AM-9:00PM Thu: 9:00AM-9:00PM Fri: 9:00AM-9:00PM Sat: 9:00AM-5:00PM Sun: 9:00AM-5:00PM, (773) 254-5523,No,No,No,No,No,Yes,TRUE,FALSE,41.830499,-87.673599,1503,1926 W 35TH ST,CHICAGO,IL,60609, (773) 254-5523,41.830499,-87.673599
Walgreens,1504,10639 S CICERO AVE,107TH & CICERO AVENUE,OAK LAWN,IL,60453, (708) 424-3594,Mon: 8:00AM-10:00PM Tue: 8:00AM-10:00PM Wed: 8:00AM-10:00PM Thu: 8:00AM-10:00PM Fri: 8:00AM-10:00PM Sat: 8:00AM-10:00PM Sun: 9:00AM-5:00PM, (708) 424-3594,No,No,No,No,Yes,Yes,TRUE,TRUE,41.698791,-87.739296,1504,10639 S CICERO AVE,OAK LAWN,IL,60453, (708) 424-3594,41.698791,-87.739296
Walgreens,1508,2855 STIRLING RD,Stirling Road & 28th Avenue,FT LAUDERDALE,FL,33312, (954) 981-1104,Mon: 8:00AM-10:00PM Tue: 8:00AM-10:00PM Wed: 8:00AM-10:00PM Thu: 8:00AM-10:00PM Fri: 8:00AM-10:00PM Sat: 8:00AM-10:00PM Sun: 8:00AM-10:00PM, (954) 981-1104,Yes,No,Yes,Yes,Yes,No,TRUE,TRUE,26.048102,-80.179673,1508,2855 STIRLING RD,FT LAUDERDALE,FL,33312, (954) 981-1104,26.048102,-80.179673
Walgreens,1512,7650 W FARMINGTON BLVD,NWC of Germantown & Farmington,GERMANTOWN,TN,38138, (901) 754-8400,Mon: 8:00AM-10:00PM Tue: 8:00AM-10:00PM Wed: 8:00AM-10:00PM Thu: 8:00AM-10:00PM Fri: 8:00AM-10:00PM Sat: 9:00AM-6:00PM Sun: 10:00AM-6:00PM, (901) 754-8400,No,No,No,No,Yes,Yes,TRUE,TRUE,35.096205,-89.808185,1512,7650 W FARMINGTON BLVD,GERMANTOWN,TN,38138, (901) 754-8400,35.096205,-89.808185
Walgreens,1515,5900 N 2ND ST,North 2nd Street & Route 251,LOVES PARK,IL,61111, (815) 282-2077,Mon: 8:00AM-10:00PM Tue: 8:00AM-10:00PM Wed: 8:00AM-10:00PM Thu: 8:00AM-10:00PM Fri: 8:00AM-10:00PM Sat: 8:00AM-10:00PM Sun: 9:00AM-5:00PM, (815) 282-2077,No,No,No,No,Yes,Yes,TRUE,TRUE,42.316399,-89.058299,1515,5900 N 2ND ST,LOVES PARK,IL,61111, (815) 282-2077,42.316399,-89.058299
Walgreens,1518,14402 FM 2100 RD,NEC of Fm 2100 & Walmart Entrance,CROSBY,TX,77532, (281) 328-8097,Mon: 8:00AM-10:00PM Tue: 8:00AM-10:00PM Wed: 8:00AM-10:00PM Thu: 8:00AM-10:00PM Fri: 8:00AM-10:00PM Sat: 9:00AM-6:00PM Sun: 10:00AM-6:00PM, (281) 328-8097,No,No,No,No,Yes,Yes,TRUE,TRUE,29.893966,-95.062809,1518,14402 FM 2100 RD,CROSBY,TX,77532, (281) 328-8097,29.893966,-95.062809
Walgreens,1532,6700 COLLINS AVE,Collins & 67th Street,MIAMI BEACH,FL,33141, (305) 861-6742,Mon: 9:00AM-9:00PM Tue: 9:00AM-9:00PM Wed: 9:00AM-9:00PM Thu: 9:00AM-9:00PM Fri: 9:00AM-9:00PM Sat: 9:00AM-6:00PM Sun: 10:00AM-6:00PM, (305) 861-6742,Yes,No,No,No,No,Yes,TRUE,FALSE,25.850754,-80.12043691,1532,6700 COLLINS AVE,MIAMI BEACH,FL,33141, (305) 861-6742,25.850754,-80.12043691
Walgreens,1536,3434 HIGH ST,High Street & Redding,OAKLAND,CA,94619, (510) 261-1984,Mon: 8:00AM-10:00PM Tue: 8:00AM-10:00PM Wed: 8:00AM-10:00PM Thu: 8:00AM-10:00PM Fri: 8:00AM-10:00PM Sat: 9:00AM-6:00PM Sun: 10:00AM-6:00PM, (510) 261-1984,No,No,No,No,Yes,Yes,TRUE,TRUE,37.786084,-122.196297,1536,3434 HIGH ST,OAKLAND,CA,94619, (510) 261-1984,37.786084,-122.196297
Walgreens,1537,3232 FOOTHILL BLVD,Foothill Boulevard & Fruitvale,OAKLAND,CA,94601, (510) 261-4552,Mon: 8:00AM-9:00PM Tue: 8:00AM-9:00PM Wed: 8:00AM-9:00PM Thu: 8:00AM-9:00PM Fri: 8:00AM-9:00PM Sat: 9:00AM-6:00PM Sun: 10:00AM-6:00PM, (510) 261-4552,No,No,No,No,Yes,Yes,TRUE,TRUE,37.783814,-122.221603,1537,3232 FOOTHILL BLVD,OAKLAND,CA,94601, (510) 261-4552,37.783814,-122.221603
Walgreens,1548,5271 SALEM AVE,SEC OF DAYTON GREENVILLE PIKE & SALEM BEND,TROTWOOD,OH,45426, (937) 854-8829,Mon: 8:00AM-10:00PM Tue: 8:00AM-10:00PM Wed: 8:00AM-10:00PM Thu: 8:00AM-10:00PM Fri: 8:00AM-10:00PM Sat: 9:00AM-6:00PM Sun: 10:00AM-6:00PM, (937) 854-8829,No,No,No,No,Yes,Yes,TRUE,TRUE,39.821117,-84.283261,1548,5271 SALEM AVE,TROTWOOD,OH,45426, (937) 854-8829,39.821117,-84.283261
Walgreens,1560,3720 S COLLEGE RD,SWC of College & 17Th St,WILMINGTON,NC,28412, (910) 793-5740,Mon: 8:00AM-10:00PM Tue: 8:00AM-10:00PM Wed: 8:00AM-10:00PM Thu: 8:00AM-10:00PM Fri: 8:00AM-10:00PM Sat: 9:00AM-6:00PM Sun: 10:00AM-6:00PM, (910) 793-5740,No,No,No,No,Yes,No,TRUE,TRUE,34.174151,-77.89194337,1560,3720 S COLLEGE RD,WILMINGTON,NC,28412, (910) 793-5740,34.174151,-77.89194337
Walgreens,1572,4415 KISSENA BLVD,Cherry Street & Kissena Boulevard,FLUSHING,NY,11355, (718) 461-8112,Mon: 8:00AM-10:00PM Tue: 8:00AM-10:00PM Wed: 8:00AM-10:00PM Thu: 8:00AM-10:00PM Fri: 8:00AM-10:00PM Sat: 8:00AM-10:00PM Sun: 8:00AM-10:00PM, (718) 461-8112,No,No,No,No,No,No,TRUE,FALSE,40.753583,-73.822224,1572,4415 KISSENA BLVD,FLUSHING,NY,11355, (718) 461-8112,40.753583,-73.822224
Walgreens,1580,6730 HILLCROFT ST,Hillcroft & Bellaire,HOUSTON,TX,77081, (713) 988-6407,Mon: 8:00AM-10:00PM Tue: 8:00AM-10:00PM Wed: 8:00AM-10:00PM Thu: 8:00AM-10:00PM Fri: 8:00AM-10:00PM Sat: 10:00AM-6:00PM Sun: 10:00AM-6:00AM, (713) 988-6407,No,No,No,No,No,Yes,TRUE,FALSE,29.706533,-95.494043,1580,6730 HILLCROFT ST,HOUSTON,TX,77081, (713) 988-6407,29.706533,-95.494043
Walgreens,1582,3900 WESTHEIMER RD,Weslayan & Westheimer Road,HOUSTON,TX,77027, (713) 629-0703,Mon: 8:00AM-10:00PM Tue: 8:00AM-10:00PM Wed: 8:00AM-10:00PM Thu: 8:00AM-10:00PM Fri: 8:00AM-10:00PM Sat: 9:00AM-6:00PM Sun: 10:00AM-6:00PM, (713) 629-0703,No,No,No,No,No,No,TRUE,FALSE,29.742473,-95.44318488,1582,3900 WESTHEIMER RD,HOUSTON,TX,77027, (713) 629-0703,29.742473,-95.44318488
Walgreens,1583,9329 KATY FWY,BLALOCK & KATY FREEWAY,HOUSTON,TX,77024, (713) 461-3607,Mon: 9:00AM-9:00PM Tue: 9:00AM-9:00PM Wed: 9:00AM-9:00PM Thu: 9:00AM-9:00PM Fri: 9:00AM-9:00PM Sat: 10:00AM-6:00PM Sun: 10:00AM-6:00PM, (713) 461-3607,No,No,No,No,No,No,TRUE,FALSE,29.782776,-95.522353,1583,9329 KATY FWY,HOUSTON,TX,77024, (713) 461-3607,29.782776,-95.522353
Walgreens,1593,5230 N MILWAUKEE AVE,MILWAUKEE & FOSTER OR MILWAUKEE & CENTRAL,CHICAGO,IL,60630, (773) 736-8920,Mon: 8:00AM-10:00PM Tue: 8:00AM-10:00PM Wed: 8:00AM-10:00PM Thu: 8:00AM-10:00PM Fri: 8:00AM-10:00PM Sat: 9:00AM-5:00PM Sun: 9:00AM-5:00PM, (773) 736-8920,No,No,No,No,No,Yes,TRUE,FALSE,41.975178,-87.767669,1593,5230 N MILWAUKEE AVE,CHICAGO,IL,60630, (773) 736-8920,41.975178,-87.767669
Walgreens,1598,1579 FOREST AVE,NEC of Decker & Forest,STATEN ISLAND,NY,10302, (718) 420-0360,Mon: 8:00AM-10:00PM Tue: 8:00AM-10:00PM Wed: 8:00AM-10:00PM Thu: 8:00AM-10:00PM Fri: 8:00AM-10:00PM Sat: 9:00AM-6:00PM Sun: 9:00AM-6:00PM, (718) 420-0360,No,No,No,No,No,Yes,TRUE,FALSE,40.624547,-74.141413,1598,1579 FOREST AVE,STATEN ISLAND,NY,10302, (718) 420-0360,40.624547,-74.141413
Walgreens,1600,14720 N KENDALL DR,Kendall & 147th Avenue,MIAMI,FL,33196, (305) 385-6030,Mon: 8:00AM-10:00PM Tue: 8:00AM-10:00PM Wed: 8:00AM-10:00PM Thu: 8:00AM-10:00PM Fri: 8:00AM-10:00PM Sat: 8:00AM-10:00PM Sun: 8:00AM-10:00PM, (305) 385-6030,No,No,No,No,No,Yes,TRUE,FALSE,25.683919,-80.430348,1600,14720 N KENDALL DR,MIAMI,FL,33196, (305) 385-6030,25.683919,-80.430348
Walgreens,1606,3001 FOOTHILL BLVD,NWC OF RAMSDELL & FOOTHILL,LA CRESCENTA,CA,91214, (818) 541-7840,Mon: 8:00AM-9:00PM Tue: 8:00AM-9:00PM Wed: 8:00AM-9:00PM Thu: 8:00AM-9:00PM Fri: 8:00AM-9:00PM Sat: 9:00AM-6:00PM Sun: 10:00AM-6:00PM, (818) 541-7840,No,No,No,No,Yes,No,TRUE,TRUE,34.227591,-118.245004,1606,3001 FOOTHILL BLVD,LA CRESCENTA,CA,91214, (818) 541-7840,34.227591,-118.245004
Walgreens,1610,21211 HARPER AVE,NWC of Harper & 8 Mile,ST CLAIR SHORES,MI,48080, (586) 776-7052,Mon: 9:00AM-9:00PM Tue: 9:00AM-9:00PM Wed: 9:00AM-9:00PM Thu: 9:00AM-9:00PM Fri: 9:00AM-9:00PM Sat: 10:00AM-6:00PM Sun: 10:00AM-6:00PM, (586) 776-7052,No,No,No,No,Yes,Yes,TRUE,TRUE,42.451668,-82.914989,1610,21211 HARPER AVE,ST CLAIR SHORES,MI,48080, (586) 776-7052,42.451668,-82.914989
Walgreens,1611,4309 WAKE FOREST RD,SWC of Falls Of The Neuse & Old Wake Forest,RALEIGH,NC,27609, (919) 878-4659,Mon: 8:00AM-10:00PM Tue: 8:00AM-10:00PM Wed: 8:00AM-10:00PM Thu: 8:00AM-10:00PM Fri: 8:00AM-10:00PM Sat: 9:00AM-6:00PM Sun: 10:00AM-6:00PM, (919) 878-4659,No,No,No,No,Yes,Yes,TRUE,TRUE,35.840543,-78.612308,1611,4309 WAKE FOREST RD,RALEIGH,NC,27609, (919) 878-4659,35.840543,-78.612308
Walgreens,1616,8277 BROADWAY,Whitney Avenue & Elmhurst Avenue,ELMHURST,NY,11373, (718) 672-7781,Mon: 9:00AM-9:00PM Tue: 9:00AM-9:00PM Wed: 9:00AM-9:00PM Thu: 9:00AM-9:00PM Fri: 9:00AM-9:00PM Sat: 10:00AM-6:00PM Sun: 10:00AM-6:00PM, (718) 672-7781,No,No,No,No,No,Yes,TRUE,TRUE,40.741399,-73.880599,1616,8277 BROADWAY,ELMHURST,NY,11373, (718) 672-7781,40.741399,-73.880599
Walgreens,1625,5055 TELEGRAPH AVE,Telegraph & 51st Street,OAKLAND,CA,94609, (510) 595-3605,Mon: 8:00AM-12:00AM Tue: 8:00AM-12:00AM Wed: 8:00AM-12:00AM Thu: 9:00AM-5:00AM Fri: 8:00AM-12:00AM Sat: 9:00AM-9:00PM Sun: 9:00AM-9:00PM, (510) 595-3605,Yes,No,No,No,Yes,Yes,TRUE,TRUE,37.83698,-122.262802,1625,5055 TELEGRAPH AVE,OAKLAND,CA,94609, (510) 595-3605,37.83698,-122.262802
Walgreens,1626,2494 SAN BRUNO AVE,SAN BRUNO AVENUE & FELTON,SAN FRANCISCO,CA,94134, (415) 468-4274,Mon: 9:00AM-9:00PM Tue: 9:00AM-9:00PM Wed: 9:00AM-9:00PM Thu: 9:00AM-9:00PM Fri: 9:00AM-9:00PM Sat: 9:00AM-5:00PM Sun: 10:00AM-6:00PM, (415) 468-4274,No,No,No,No,No,Yes,TRUE,FALSE,37.730126,-122.404852,1626,2494 SAN BRUNO AVE,SAN FRANCISCO,CA,94134, (415) 468-4274,37.730126,-122.404852
Walgreens,1633,7398 N LINDBERGH BLVD,SEC OF LINDBERGH & ELM GROVE,HAZELWOOD,MO,63042, (314) 972-1257,Mon: 9:00AM-9:00PM Tue: 9:00AM-9:00PM Wed: 9:00AM-9:00PM Thu: 9:00AM-9:00PM Fri: 9:00AM-9:00PM Sat: 9:00AM-6:00PM Sun: 10:00AM-6:00PM, (314) 972-1257,No,No,No,No,Yes,No,TRUE,TRUE,38.784291,-90.353975,1633,7398 N LINDBERGH BLVD,HAZELWOOD,MO,63042, (314) 972-1257,38.784291,-90.353975
Walgreens,1634,7810 OAK RIDGE HWY,NWC of Byington Beaver Ridge Rd & Oak Ridge Hwy,KARNS,TN,37931, (865) 690-5357,Mon: 8:00AM-10:00PM Tue: 8:00AM-10:00PM Wed: 8:00AM-10:00PM Thu: 8:00AM-10:00PM Fri: 8:00AM-10:00PM Sat: 9:00AM-6:00PM Sun: 10:00AM-6:00PM, (865) 690-5357,No,No,No,No,Yes,Yes,TRUE,TRUE,35.979733,-84.115763,1634,7810 OAK RIDGE HWY,KARNS,TN,37931, (865) 690-5357,35.979733,-84.115763
Walgreens,1646,23 S MARIETTA PKWY SW,SEC of Hwy 120 & Whitlock,MARIETTA,GA,30064, (770) 420-8932,Mon: 8:00AM-8:00PM Tue: 8:00AM-8:00PM Wed: 8:00AM-8:00PM Thu: 8:00AM-8:00PM Fri: 8:00AM-8:00PM Sat: 9:00AM-5:00PM Sun: 9:00AM-5:00PM, (770) 420-8932,Yes,No,No,No,Yes,Yes,TRUE,TRUE,33.951818,-84.552087,1646,23 S MARIETTA PKWY SW,MARIETTA,GA,30064, (770) 420-8932,33.951818,-84.552087
Walgreens,1652,3109 S KINNICKINNIC AVE,Kinnickinnic & Oklahoma,MILWAUKEE,WI,53207, (414) 482-3515,Mon: 8:00AM-9:00PM Tue: 8:00AM-9:00PM Wed: 8:00AM-9:00PM Thu: 8:00AM-9:00PM Fri: 8:00AM-9:00PM Sat: 9:00AM-6:00PM Sun: 10:00AM-6:00PM, (414) 482-3515,No,No,No,No,No,Yes,TRUE,FALSE,42.987971,-87.883661,1652,3109 S KINNICKINNIC AVE,MILWAUKEE,WI,53207, (414) 482-3515,42.987971,-87.883661
Walgreens,1656,63 GREEN BAY RD,Greenbay Road & Scott,GLENCOE,IL,60022, (847) 835-8417,Mon: 8:00AM-10:00PM Tue: 8:00AM-10:00PM Wed: 8:00AM-10:00PM Thu: 8:00AM-10:00PM Fri: 8:00AM-10:00PM Sat: 9:00AM-5:00PM Sun: 9:00AM-5:00PM, (847) 835-8417,No,No,No,No,No,Yes,TRUE,FALSE,42.119577,-87.745248,1656,63 GREEN BAY RD,GLENCOE,IL,60022, (847) 835-8417,42.119577,-87.745248
Walgreens,1657,3333 MASONIC DR,SEC of Masonic & Texas,ALEXANDRIA,LA,71301, (318) 445-6386,Mon: 9:00AM-9:00PM Tue: 9:00AM-9:00PM Wed: 9:00AM-9:00PM Thu: 9:00AM-9:00PM Fri: 9:00AM-9:00PM Sat: 9:00AM-6:00PM Sun: 10:00AM-6:00PM, (318) 445-6386,No,No,No,No,Yes,Yes,TRUE,TRUE,31.283299,-92.459599,1657,3333 MASONIC DR,ALEXANDRIA,LA,71301, (318) 445-6386,31.283299,-92.459599
Walgreens,1662,4673 TAMIAMI TRL N,Neopolitan Way & U.S. 41,NAPLES,FL,34103, (239) 649-6686,Mon: 8:00AM-10:00PM Tue: 8:00AM-10:00PM Wed: 8:00AM-10:00PM Thu: 8:00AM-10:00PM Fri: 8:00AM-10:00PM Sat: 9:00AM-6:00PM Sun: 9:00AM-5:00PM, (239) 649-6686,No,No,No,No,No,No,TRUE,FALSE,26.203805,-81.80117299,1662,4673 TAMIAMI TRL N,NAPLES,FL,34103, (239) 649-6686,26.203805,-81.80117299
Walgreens,1670,15 GRANT SQ,Grant & Chicago Avenue,HINSDALE,IL,60521, (630) 323-7059,Mon: 7:00AM-9:00PM Tue: 7:00AM-9:00PM Wed: 7:00AM-9:00PM Thu: 7:00AM-9:00PM Fri: 7:00AM-9:00PM Sat: 9:00AM-6:00PM Sun: 9:00AM-5:00PM, (630) 323-7059,No,No,No,No,Yes,Yes,TRUE,TRUE,41.803199,-87.933099,1670,15 GRANT SQ,HINSDALE,IL,60521, (630) 323-7059,41.803199,-87.933099
Walgreens,1679,6411 GRAVOIS AVE,GRAVOIS & HOLLY HILLS,SAINT LOUIS,MO,63116, (314) 832-3650,Mon: 9:00AM-9:00PM Tue: 9:00AM-9:00PM Wed: 9:00AM-9:00PM Thu: 9:00AM-9:00PM Fri: 9:00AM-9:00PM Sat: 9:00AM-6:00PM Sun: 10:00AM-6:00PM, (314) 832-3650,No,No,No,No,No,No,TRUE,FALSE,38.573599,-90.280599,1679,6411 GRAVOIS AVE,SAINT LOUIS,MO,63116, (314) 832-3650,38.573599,-90.280599
Walgreens,1681,4319 N OCEAN DR,Commercial & A1A,LAUDERDALE BY THE SEA,FL,33308, (954) 776-1292,Mon: 9:00AM-9:00PM Tue: 9:00AM-9:00PM Wed: 9:00AM-9:00PM Thu: 9:00AM-9:00PM Fri: 9:00AM-9:00PM Sat: 9:00AM-5:00PM Sun: 9:00AM-5:00PM, (954) 776-1292,No,No,No,No,No,No,TRUE,FALSE,26.18826,-80.09710686,1681,4319 N OCEAN DR,LAUDERDALE BY THE SEA,FL,33308, (954) 776-1292,26.18826,-80.09710686
Walgreens,1685,1400 E BRADY ST,BRADY STREET & FARWELL AVENUE,MILWAUKEE,WI,53202, (414) 272-2171,Mon: 12:00AM-12:00AM Tue: 12:00AM-12:00AM Wed: 12:00AM-12:00AM Thu: 12:00AM-12:00AM Fri: 12:00AM-12:00AM Sat: 12:00AM-12:00AM Sun: 12:00AM-12:00AM, (414) 272-2171,Yes,Yes,Yes,Yes,No,Yes,TRUE,TRUE,43.053325,-87.89321003,1685,1400 E BRADY ST,MILWAUKEE,WI,53202, (414) 272-2171,43.053325,-87.89321003
Walgreens,1724,4899 NW BLITCHTON RD,NEC of 49Th & Hwy 27,OCALA,FL,34482, (352) 622-8753,Mon: 9:00AM-9:00PM Tue: 9:00AM-9:00PM Wed: 9:00AM-9:00PM Thu: 9:00AM-9:00PM Fri: 9:00AM-9:00PM Sat: 9:00AM-5:00PM Sun: 9:00AM-5:00PM, (352) 622-8753,No,No,No,No,Yes,No,TRUE,TRUE,29.216482,-82.205748,1724,4899 NW BLITCHTON RD,OCALA,FL,34482, (352) 622-8753,29.216482,-82.205748
Walgreens,1737,200 W LAKE ST,Lake Street & Pillsbury Avenue,MINNEAPOLIS,MN,55408, (612) 827-8902,Mon: 8:00AM-10:00PM Tue: 8:00AM-10:00PM Wed: 8:00AM-10:00PM Thu: 8:00AM-10:00PM Fri: 8:00AM-10:00PM Sat: 9:00AM-6:00PM Sun: 10:00AM-6:00PM, (612) 827-8902,No,No,No,No,No,Yes,TRUE,FALSE,44.948493,-93.28179741,1737,200 W LAKE ST,MINNEAPOLIS,MN,55408, (612) 827-8902,44.948493,-93.28179741
Walgreens,1750,1250 E CHAPMAN AVE,SEC OF RAYMOND & CHAPMAN,FULLERTON,CA,92831, (714) 680-9124,Mon: 8:00AM-9:00PM Tue: 8:00AM-9:00PM Wed: 8:00AM-9:00PM Thu: 8:00AM-9:00PM Fri: 8:00AM-9:00PM Sat: 9:00AM-6:00PM Sun: 10:00AM-6:00PM, (714) 680-9124,No,No,No,No,Yes,No,TRUE,TRUE,33.873595,-117.906011,1750,1250 E CHAPMAN AVE,FULLERTON,CA,92831, (714) 680-9124,33.873595,-117.906011
Walgreens,1751,2920 WHITE BEAR AVE N,NEC of White Bear & Beam,MAPLEWOOD,MN,55109, (651) 251-9938,Mon: 12:00AM-12:00AM Tue: 12:00AM-12:00AM Wed: 12:00AM-12:00AM Thu: 12:00AM-12:00AM Fri: 12:00AM-12:00AM Sat: 12:00AM-12:00AM Sun: 12:00AM-12:00AM, (651) 251-9938,Yes,Yes,No,No,Yes,Yes,TRUE,TRUE,45.028203,-93.017745,1751,2920 WHITE BEAR AVE N,MAPLEWOOD,MN,55109, (651) 251-9938,45.028203,-93.017745
Walgreens,1761,6770 FOREST HILL BLVD,Forest Hills & Jog,GREENACRES,FL,33413, (561) 964-6666,Mon: 8:00AM-8:00PM Tue: 8:00AM-8:00PM Wed: 8:00AM-8:00PM Thu: 8:00AM-8:00PM Fri: 8:00AM-8:00PM Sat: 9:00AM-5:00PM Sun: 9:00AM-5:00PM, (561) 964-6666,No,No,No,No,No,No,TRUE,FALSE,26.648791,-80.14685205,1761,6770 FOREST HILL BLVD,GREENACRES,FL,33413, (561) 964-6666,26.648791,-80.14685205
Walgreens,1768,7652 W TOUHY AVE,Touhy & Overhill,CHICAGO,IL,60631, (773) 631-5903,Mon: 9:00AM-7:00PM Tue: 9:00AM-7:00PM Wed: 9:00AM-7:00PM Thu: 9:00AM-7:00PM Fri: 9:00AM-7:00PM Sat: 9:00AM-5:00PM Sun: 9:00AM-5:00PM, (773) 631-5903,No,No,No,No,No,Yes,TRUE,FALSE,42.011626,-87.8182459,1768,7652 W TOUHY AVE,CHICAGO,IL,60631, (773) 631-5903,42.011626,-87.8182459
Walgreens,1769,2000 E COLFAX AVE,Race & Colfax,DENVER,CO,80206, (303) 331-0917,Mon: 8:00AM-10:00PM Tue: 8:00AM-10:00PM Wed: 8:00AM-10:00PM Thu: 8:00AM-10:00PM Fri: 8:00AM-10:00PM Sat: 8:00AM-10:00PM Sun: 8:00AM-10:00PM, (303) 331-0917,Yes,No,No,No,No,No,TRUE,TRUE,39.739799,-104.963099,1769,2000 E COLFAX AVE,DENVER,CO,80206, (303) 331-0917,39.739799,-104.963099
Walgreens,1770,2625 ADLAI STEVENSON DR,NWC OF TAYLOR & STEVENSON,SPRINGFIELD,IL,62703, (217) 529-8185,Mon: 7:00AM-10:00PM Tue: 7:00AM-10:00PM Wed: 7:00AM-10:00PM Thu: 7:00AM-10:00PM Fri: 7:00AM-10:00PM Sat: 8:00AM-6:00PM Sun: 10:00AM-6:00PM, (217) 529-8185,No,No,No,No,Yes,Yes,TRUE,TRUE,39.758313,-89.617012,1770,2625 ADLAI STEVENSON DR,SPRINGFIELD,IL,62703, (217) 529-8185,39.758313,-89.617012
Walgreens,1776,815 W STATE RD,NWC of State St & Pleasant Grove Blvd,PLEASANT GROVE,UT,84062, (801) 922-4256,Mon: 8:00AM-10:00PM Tue: 8:00AM-10:00PM Wed: 8:00AM-10:00PM Thu: 8:00AM-10:00PM Fri: 8:00AM-10:00PM Sat: 9:00AM-6:00PM Sun: 9:00AM-5:00PM, (801) 922-4256,No,No,No,No,Yes,No,TRUE,TRUE,40.365739,-111.752617,1776,815 W STATE RD,PLEASANT GROVE,UT,84062, (801) 922-4256,40.365739,-111.752617
Walgreens,1777,3948 AIRPORT BLVD,NEC of Mcgregor Ave & Airport Blvd,MOBILE,AL,36608, (251) 345-3394,Mon: 12:00AM-12:00AM Tue: 12:00AM-12:00AM Wed: 12:00AM-12:00AM Thu: 12:00AM-12:00AM Fri: 12:00AM-12:00AM Sat: 12:00AM-12:00AM Sun: 12:00AM-12:00AM, (251) 345-3394,Yes,Yes,No,No,Yes,No,TRUE,TRUE,30.676447,-88.14802294,1777,3948 AIRPORT BLVD,MOBILE,AL,36608, (251) 345-3394,30.676447,-88.14802294
Walgreens,1779,4608 E MICHIGAN ST,Michigan & Conway,ORLANDO,FL,32812, (407) 281-7499,Mon: 9:00AM-9:00PM Tue: 9:00AM-9:00PM Wed: 9:00AM-9:00PM Thu: 9:00AM-9:00PM Fri: 9:00AM-9:00PM Sat: 9:00AM-5:00PM Sun: 9:00AM-5:00PM, (407) 281-7499,No,No,No,No,No,No,TRUE,FALSE,28.512599,-81.330299,1779,4608 E MICHIGAN ST,ORLANDO,FL,32812, (407) 281-7499,28.512599,-81.330299
Walgreens,1799,1503 METAIRIE RD,Metairie Road & Codifer,METAIRIE,LA,70005, (504) 831-3775,Mon: 8:00AM-10:00PM Tue: 8:00AM-10:00PM Wed: 8:00AM-10:00PM Thu: 8:00AM-10:00PM Fri: 8:00AM-10:00PM Sat: 9:00AM-6:00PM Sun: 10:00AM-6:00PM, (504) 831-3775,No,No,No,No,No,Yes,TRUE,FALSE,29.987745,-90.14011192,1799,1503 METAIRIE RD,METAIRIE,LA,70005, (504) 831-3775,29.987745,-90.14011192
Walgreens,1800,4578 S KIRKMAN RD,Kirkman Road & Conroy Road,ORLANDO,FL,32811, (407) 293-8458,Mon: 9:00AM-9:00PM Tue: 9:00AM-9:00PM Wed: 9:00AM-9:00PM Thu: 9:00AM-9:00PM Fri: 9:00AM-9:00PM Sat: 9:00AM-5:00PM Sun: 9:00AM-5:00PM, (407) 293-8458,No,No,No,No,No,No,TRUE,FALSE,28.494807,-81.46111589,1800,4578 S KIRKMAN RD,ORLANDO,FL,32811, (407) 293-8458,28.494807,-81.46111589
Walgreens,1807,22 SAN PEDRO RD,San Pedro & Mission Street,DALY CITY,CA,94014, (650) 756-3412,Mon: 8:00AM-9:00PM Tue: 8:00AM-9:00PM Wed: 8:00AM-9:00PM Thu: 8:00AM-9:00PM Fri: 8:00AM-9:00PM Sat: 9:00AM-6:00PM Sun: 10:00AM-6:00PM, (650) 756-3412,No,No,No,No,No,No,TRUE,FALSE,37.689429,-122.466524,1807,22 SAN PEDRO RD,DALY CITY,CA,94014, (650) 756-3412,37.689429,-122.466524
Walgreens,1811,3207 E LAKE ST,32nd Avenue & Lake Street,MINNEAPOLIS,MN,55406, (612) 721-4868,Mon: 9:00AM-9:00PM Tue: 9:00AM-9:00PM Wed: 9:00AM-9:00PM Thu: 9:00AM-9:00PM Fri: 9:00AM-9:00PM Sat: 9:00AM-6:00PM Sun: 10:00AM-6:00PM, (612) 721-4868,No,No,No,No,No,Yes,TRUE,FALSE,44.948199,-93.224999,1811,3207 E LAKE ST,MINNEAPOLIS,MN,55406, (612) 721-4868,44.948199,-93.224999
Walgreens,1813,18568 VENTURA BLVD,SWC OF MECCA & VENTURA,TARZANA,CA,91356, (818) 776-1363,Mon: 8:00AM-9:00PM Tue: 8:00AM-9:00PM Wed: 8:00AM-9:00PM Thu: 8:00AM-9:00PM Fri: 8:00AM-9:00PM Sat: 9:00AM-6:00PM Sun: 10:00AM-6:00PM, (818) 776-1363,No,No,No,No,No,No,TRUE,FALSE,34.169197,-118.5378556,1813,18568 VENTURA BLVD,TARZANA,CA,91356, (818) 776-1363,34.169197,-118.5378556
Walgreens,1816,3301 PANAMA LN,SWC OF WIBLE & PANAMA,BAKERSFIELD,CA,93313, (661) 835-9383,Mon: 8:00AM-9:00PM Tue: 8:00AM-9:00PM Wed: 8:00AM-9:00PM Thu: 8:00AM-9:00PM Fri: 8:00AM-9:00PM Sat: 9:00AM-6:00PM Sun: 10:00AM-6:00PM, (661) 835-9383,No,No,No,No,Yes,Yes,TRUE,TRUE,35.295289,-119.0396379,1816,3301 PANAMA LN,BAKERSFIELD,CA,93313, (661) 835-9383,35.295289,-119.0396379
Walgreens,1870,12109 APPLE VALLEY RD,NEC of Apple Valley & Bear Valley,APPLE VALLEY,CA,92308, (760) 240-5896,Mon: 8:00AM-9:00PM Tue: 8:00AM-9:00PM Wed: 8:00AM-9:00PM Thu: 8:00AM-9:00PM Fri: 8:00AM-9:00PM Sat: 9:00AM-6:00PM Sun: 10:00AM-6:00PM, (760) 240-5896,No,No,No,Yes,Yes,Yes,TRUE,TRUE,34.471691,-117.241582,1870,12109 APPLE VALLEY RD,APPLE VALLEY,CA,92308, (760) 240-5896,34.471691,-117.241582
Walgreens,1895,2643 CENTRAL AVE NE,27th Street & Central Avenue,MINNEAPOLIS,MN,55418, (612) 789-6251,Mon: 8:00AM-10:00PM Tue: 8:00AM-10:00PM Wed: 8:00AM-10:00PM Thu: 8:00AM-10:00PM Fri: 8:00AM-10:00PM Sat: 8:00AM-10:00PM Sun: 8:00AM-10:00PM, (612) 789-6251,Yes,No,No,No,No,Yes,TRUE,FALSE,45.015699,-93.246999,1895,2643 CENTRAL AVE NE,MINNEAPOLIS,MN,55418, (612) 789-6251,45.015699,-93.246999
Walgreens,1899,9495 E SPEEDWAY BLVD,Speedway & Harrison,TUCSON,AZ,85710, (520) 290-4143,Mon: 9:00AM-9:00PM Tue: 9:00AM-9:00PM Wed: 9:00AM-9:00PM Thu: 9:00AM-9:00PM Fri: 9:00AM-9:00PM Sat: 10:00AM-6:00PM Sun: 10:00AM-6:00PM, (520) 290-4143,No,No,No,No,Yes,Yes,TRUE,TRUE,32.236029,-110.7903762,1899,9495 E SPEEDWAY BLVD,TUCSON,AZ,85710, (520) 290-4143,32.236029,-110.7903762
Walgreens,1902,6680 THOMASVILLE RD,SWC OF THOMASVILLE & BANNERMAN,TALLAHASSEE,FL,32312, (850) 907-1763,Mon: 8:00AM-10:00PM Tue: 8:00AM-10:00PM Wed: 8:00AM-10:00PM Thu: 8:00AM-10:00PM Fri: 8:00AM-10:00PM Sat: 8:00AM-6:00PM Sun: 9:00AM-6:00PM, (850) 907-1763,No,No,No,No,Yes,No,TRUE,TRUE,30.561159,-84.21822646,1902,6680 THOMASVILLE RD,TALLAHASSEE,FL,32312, (850) 907-1763,30.561159,-84.21822646
Walgreens,1910,2321 E GRAND RIVER AVE,NEC of Golf Course Rd & Grand River,HOWELL,MI,48843, (517) 546-5716,Mon: 12:00AM-12:00AM Tue: 12:00AM-12:00AM Wed: 12:00AM-12:00AM Thu: 12:00AM-12:00AM Fri: 12:00AM-12:00AM Sat: 12:00AM-12:00AM Sun: 12:00AM-12:00AM, (517) 546-5716,Yes,Yes,No,No,Yes,No,TRUE,TRUE,42.599248,-83.906651,1910,2321 E GRAND RIVER AVE,HOWELL,MI,48843, (517) 546-5716,42.599248,-83.906651
Walgreens,1913,2026 HIGHWAY 72 E,SWC of Harper St & Rt 72,CORINTH,MS,38834, (662) 287-4066,Mon: 8:00AM-10:00PM Tue: 8:00AM-10:00PM Wed: 8:00AM-10:00PM Thu: 8:00AM-10:00PM Fri: 8:00AM-10:00PM Sat: 9:00AM-6:00PM Sun: 10:00AM-6:00PM, (662) 287-4066,No,No,No,No,Yes,Yes,TRUE,TRUE,34.913771,-88.5023401,1913,2026 HIGHWAY 72 E,CORINTH,MS,38834, (662) 287-4066,34.913771,-88.5023401
Walgreens,1916,13611 GROVE DR,Weaver Lake Road & Grove Drive,MAPLE GROVE,MN,55311, (763) 420-7788,Mon: 9:00AM-9:00PM Tue: 9:00AM-9:00PM Wed: 9:00AM-9:00PM Thu: 9:00AM-9:00PM Fri: 9:00AM-9:00PM Sat: 9:00AM-6:00PM Sun: 10:00AM-6:00PM, (763) 420-7788,No,No,No,No,No,No,TRUE,FALSE,45.102422,-93.45342885,1916,13611 GROVE DR,MAPLE GROVE,MN,55311, (763) 420-7788,45.102422,-93.45342885
Walgreens,1918,755 BROADWAY,SEC OF FLUSHING AVE & BROADWAY,BROOKLYN,NY,11206, (718) 963-2702,Mon: 8:00AM-10:00PM Tue: 8:00AM-10:00PM Wed: 8:00AM-10:00PM Thu: 8:00AM-10:00PM Fri: 8:00AM-10:00PM Sat: 8:00AM-10:00PM Sun: 8:00AM-10:00PM, (718) 963-2702,No,No,No,No,No,No,TRUE,TRUE,40.700671,-73.941814,1918,755 BROADWAY,BROOKLYN,NY,11206, (718) 963-2702,40.700671,-73.941814
Walgreens,1924,2300 COLLINS AVE,NWC of Collins & 23Rd,MIAMI BEACH,FL,33139, (305) 604-8722,Mon: 10:00AM-7:00PM Tue: 10:00AM-7:00PM Wed: 10:00AM-7:00PM Thu: 10:00AM-7:00PM Fri: 10:00AM-7:00PM Sat: 10:00AM-5:00PM Sun: CLOSED-CLOSED, (305) 604-8722,Yes,No,No,No,No,No,TRUE,FALSE,25.798528,-80.12811187,1924,2300 COLLINS AVE,MIAMI BEACH,FL,33139, (305) 604-8722,25.798528,-80.12811187
Walgreens,1925,13317 N BOULEVARD,SEC of North Blvd & Fletcher,TAMPA,FL,33612, (813) 935-8524,Mon: 9:00AM-9:00PM Tue: 9:00AM-9:00PM Wed: 9:00AM-9:00PM Thu: 9:00AM-9:00PM Fri: 9:00AM-9:00PM Sat: 9:00AM-6:00PM Sun: 9:00AM-5:00PM, (813) 935-8524,No,No,No,No,Yes,No,TRUE,TRUE,28.068955,-82.467295,1925,13317 N BOULEVARD,TAMPA,FL,33612, (813) 935-8524,28.068955,-82.467295
Walgreens,1933,2501 S LAMAR BLVD,SEC of Lamar & Bluebonnet,AUSTIN,TX,78704, (512) 443-7534,Mon: 12:00AM-12:00AM Tue: 12:00AM-12:00AM Wed: 12:00AM-12:00AM Thu: 12:00AM-12:00AM Fri: 12:00AM-12:00AM Sat: 12:00AM-12:00AM Sun: 12:00AM-12:00AM, (512) 443-7534,Yes,Yes,No,Yes,Yes,Yes,TRUE,TRUE,30.246049,-97.777796,1933,2501 S LAMAR BLVD,AUSTIN,TX,78704, (512) 443-7534,30.246049,-97.777796
Walgreens,1934,1802 JAMES L REDMAN PKWY,SEC of James Redman (Sr 39) & Park,PLANT CITY,FL,33563, (813) 752-6192,Mon: 9:00AM-9:00PM Tue: 9:00AM-5:00PM Wed: 9:00AM-9:00PM Thu: 9:00AM-9:00PM Fri: 9:00AM-9:00PM Sat: 9:00AM-6:00PM Sun: 9:00AM-5:00PM, (813) 752-6192,No,No,No,No,Yes,No,TRUE,TRUE,27.996074,-82.12111218,1934,1802 JAMES L REDMAN PKWY,PLANT CITY,FL,33563, (813) 752-6192,27.996074,-82.12111218
Walgreens,1937,1106 W CLAIREMONT AVE,NEC of Craig & Hwy 12,EAU CLAIRE,WI,54701, (715) 852-0063,Mon: 8:00AM-10:00PM Tue: 8:00AM-10:00PM Wed: 8:00AM-10:00PM Thu: 8:00AM-10:00PM Fri: 8:00AM-10:00PM Sat: 9:00AM-6:00PM Sun: 10:00AM-6:00PM, (715) 852-0063,No,No,No,No,Yes,No,TRUE,TRUE,44.793077,-91.518246,1937,1106 W CLAIREMONT AVE,EAU CLAIRE,WI,54701, (715) 852-0063,44.793077,-91.518246
Walgreens,1938,1208 ROYAL PALM BEACH BLVD,Royal Palm Boulevard & Okeechobee,ROYAL PALM BEACH,FL,33411, (561) 798-9048,Mon: 8:00AM-10:00PM Tue: 8:00AM-10:00PM Wed: 8:00AM-10:00PM Thu: 8:00AM-10:00PM Fri: 8:00AM-10:00PM Sat: 8:00AM-6:00PM Sun: 9:00AM-6:00PM, (561) 798-9048,No,No,No,No,No,No,TRUE,FALSE,26.70845,-80.22747077,1938,1208 ROYAL PALM BEACH BLVD,ROYAL PALM BEACH,FL,33411, (561) 798-9048,26.70845,-80.22747077
Walgreens,1940,1955 W TEXAS ST,West Texas Avenue & Beck Avenue,FAIRFIELD,CA,94533, (707) 428-0496,Mon: 8:00AM-9:00PM Tue: 8:00AM-9:00PM Wed: 8:00AM-9:00PM Thu: 8:00AM-9:00PM Fri: 8:00AM-9:00PM Sat: 9:00AM-6:00PM Sun: 10:00AM-6:00PM, (707) 428-0496,No,No,No,No,No,Yes,TRUE,FALSE,38.248413,-122.0646445,1940,1955 W TEXAS ST,FAIRFIELD,CA,94533, (707) 428-0496,38.248413,-122.0646445
Walgreens,1941,1200 S MAIN ST,SWC of Main & Mcgaffey,ROSWELL,NM,88203, (575) 624-1439,Mon: 8:00AM-10:00PM Tue: 8:00AM-10:00PM Wed: 8:00AM-10:00PM Thu: 8:00AM-10:00PM Fri: 8:00AM-10:00PM Sat: 9:00AM-6:00PM Sun: 10:00AM-6:00PM, (575) 624-1439,No,No,No,No,Yes,Yes,TRUE,TRUE,33.379367,-104.5233353,1941,1200 S MAIN ST,ROSWELL,NM,88203, (575) 624-1439,33.379367,-104.5233353
Walgreens,1950,10135 E VIA LINDA,Via Linda & Mountain View,SCOTTSDALE,AZ,85258, (480) 391-3769,Mon: 9:00AM-9:00PM Tue: 9:00AM-9:00PM Wed: 9:00AM-9:00PM Thu: 9:00AM-9:00PM Fri: 9:00AM-9:00PM Sat: 10:00AM-6:00PM Sun: 10:00AM-6:00PM, (480) 391-3769,No,No,No,No,No,Yes,TRUE,FALSE,33.573089,-111.863467,1950,10135 E VIA LINDA,SCOTTSDALE,AZ,85258, (480) 391-3769,33.573089,-111.863467
Walgreens,1951,612 4TH ST NW,NEC of 7Th & Hwy 60,FARIBAULT,MN,55021, (507) 332-9783,Mon: 8:00AM-10:00PM Tue: 8:00AM-10:00PM Wed: 8:00AM-10:00PM Thu: 8:00AM-10:00PM Fri: 8:00AM-10:00PM Sat: 9:00AM-6:00PM Sun: 10:00AM-6:00PM, (507) 332-9783,No,No,No,No,Yes,Yes,TRUE,TRUE,44.294478,-93.279099,1951,612 4TH ST NW,FARIBAULT,MN,55021, (507) 332-9783,44.294478,-93.279099
Walgreens,1952,1330 S CARAWAY RD,NEC of S Caraway Rd & E Nettleton Ave,JONESBORO,AR,72401, (870) 268-1442,Mon: 8:00AM-10:00PM Tue: 8:00AM-10:00PM Wed: 8:00AM-10:00PM Thu: 8:00AM-10:00PM Fri: 8:00AM-10:00PM Sat: 9:00AM-6:00PM Sun: 10:00AM-6:00PM, (870) 268-1442,No,No,No,Yes,Yes,Yes,TRUE,TRUE,35.828902,-90.677117,1952,1330 S CARAWAY RD,JONESBORO,AR,72401, (870) 268-1442,35.828902,-90.677117
Walgreens,1953,8800 RICHMOND AVE,NEC of Fondren & Richmond,HOUSTON,TX,77063, (713) 784-8130,Mon: 9:00AM-9:00PM Tue: 9:00AM-9:00PM Wed: 9:00AM-9:00PM Thu: 9:00AM-9:00PM Fri: 9:00AM-9:00PM Sat: 10:00AM-6:00PM Sun: 10:00AM-6:00PM, (713) 784-8130,No,No,No,No,Yes,No,TRUE,TRUE,29.729418,-95.520055,1953,8800 RICHMOND AVE,HOUSTON,TX,77063, (713) 784-8130,29.729418,-95.520055
